PollingPlaceNm,DivisionNm,GreensVotes_2019,TotalVotes_2019,GreensPercentage_2019,SwingPercentage,PremisesNm_2019,PremisesAddress_2019,Latitude,Longitude,LegCo,LocalCouncil
Abbotsham,Braddon,11,142,7.7,1.1,Abbotsham Hall,"590 Castra Rd, ABBOTSHAM 7315",-41.2135,146.174,Montgomery,Central Coast
Acton,Braddon,46,1339,3.4,0.0,Burnie Child and Family Centre,"36 Thorne St, ACTON 7320",-41.07264,145.89229,Montgomery,Burnie City
Boat Harbour,Braddon,30,389,7.7,-4.3,Boat Harbour Primary School,"17386 Bass Hwy, BOAT HARBOUR 7321",-40.9452,145.636,Murchison,Waratah-Wynyard
Burnie,Braddon,78,1084,7.2,0.8,Burnie City Council Offices,"80 Wilson St, BURNIE 7320",-41.0532,145.906,Murchison,Burnie City
Calder,Braddon,4,146,2.7,-7.9,Calder Hall,"1320 Calder Rd, CALDER 7325",-41.0685,145.631,Murchison,Waratah-Wynyard
Cooee,Braddon,52,808,6.4,0.8,Cooee Primary School,"30 Fidler St, COOEE 7320",-41.04076,145.86801,Murchison,Burnie City
Currie,Braddon,29,636,4.6,-1.2,Currie Town Hall,"10 George St, CURRIE 7256",-39.9298,143.855,Murchison,King Island
Devonport,Braddon,23,646,3.6,,Addison Street Scout Hall,"11 Addison St, DEVONPORT 7310",-41.1737,146.344,Mersey,Devonport City
Devonport Central,Braddon,90,1172,7.7,0.9,Old Devonport Regional Gallery,"45 Stewart St, DEVONPORT 7310",-41.179983,146.359846,Mersey,Devonport City
Devonport North West,Braddon,132,2054,6.4,1.1,Nixon Street Primary School,"60 Nixon St, DEVONPORT 7310",-41.1728,146.337,Mersey,Devonport City
Devonport South,Braddon,67,1186,5.6,2.2,Reece High School,"41-43 Middle Rd, DEVONPORT 7310",-41.1893,146.349,Mersey,Devonport City
Devonport West,Braddon,38,1129,3.4,0.2,TasTafe,"20-36 Valley Rd, DEVONPORT 7310",-41.1864,146.345,Mersey,Devonport City
Don,Braddon,68,1088,6.2,1.3,Don Memorial Hall,"17 Forth Rd, DON 7310",-41.1827,146.318,Mersey,Devonport City
East Devonport,Braddon,60,1799,3.3,0.0,East Devonport Primary School,"19-21 Thomas St, EAST DEVONPORT 7310",-41.1779,146.372,Mersey,Devonport City
Edith Creek,Braddon,9,187,4.8,1.0,Edith Creek Primary School,"1282 Trowutta Rd, EDITH CREEK 7330",-40.9705,145.092,Murchison,Circular Head
Elliott,Braddon,24,340,7.1,-1.5,Elliott Community Centre,"829 Murchison Hwy, ELLIOTT 7325",-41.0922,145.782,Murchison,Waratah-Wynyard
Forest,Braddon,6,385,1.6,-0.2,Forest Primary School,"422 Mengha Rd, FOREST 7330",-40.8486,145.248,Murchison,Circular Head
Forth,Braddon,51,564,9.0,0.1,Forth Primary School,"45 Wilmot Rd, FORTH 7310",-41.192921,146.248975,Montgomery,Central Coast
Gawler,Braddon,14,421,3.3,-1.4,Gawler Hall,"15 Top Gawler Rd, GAWLER 7315",-41.1852,146.16,Montgomery,Central Coast
Grassy,Braddon,6,168,3.6,0.7,Grassy Club,"10 Grassy Rd, GRASSY 7256",-40.0484,144.058,Murchison,King Island
Havenview,Braddon,16,462,3.5,0.8,Havenview Primary School,"15 Marriott St, HAVENVIEW 7320",-41.0836,145.911,Montgomery,Burnie City
Heybridge,Braddon,11,259,4.2,-2.1,Blythe Heads Hall,"Sice Ave, HEYBRIDGE 7316",-41.0751,145.986,Montgomery,Central Coast
Highclere,Braddon,3,160,1.9,-0.5,Highclere Community Centre,"1558 Ridgley Hwy, HIGHCLERE 7321",-41.1904,145.806,Montgomery,Burnie City
Irishtown,Braddon,2,350,0.6,-0.1,Irishtown Lodge Arthur Temple,"604 Irishtown Rd, IRISHTOWN 7330",-40.9133,145.145,Murchison,Circular Head
Latrobe,Braddon,54,1440,3.8,-0.2,Latrobe Memorial Hall,"170 Gilbert St, LATROBE 7307",-41.2365,146.415,Mersey,Latrobe
Latrobe South,Braddon,34,976,3.5,,Latrobe Primary School,"23 Lewis St, LATROBE 7307",-41.239619,146.416013,Mersey,Latrobe
Marrawah,Braddon,9,261,3.4,-0.7,Marrawah Memorial Hall,"844 Comeback Rd, MARRAWAH 7330",-40.9229,144.697,Murchison,Circular Head
Melrose,Braddon,14,225,6.2,-5.0,Melrose Memorial Hall,"673 Melrose Rd, MELROSE 7310",-41.2417,146.289,Mersey,Devonport City
Montello,Braddon,37,892,4.1,-1.3,Montello Primary School,"83 Bird St, MONTELLO 7320",-41.0605,145.898,Murchison,Burnie City
Moorleah,Braddon,13,188,6.9,-0.6,Moorleah Community Centre,"720 Preolenna Rd, MOORLEAH 7321",-40.981,145.616,Murchison,Waratah-Wynyard
Moriarty,Braddon,16,221,7.2,0.5,Moriarty Hall,"1 Bonneys Lane, MORIARTY 7307",-41.217206,146.481308,Mersey,Latrobe
Natone,Braddon,13,141,9.2,1.7,Natone Primary School,"100 Upper Natone Rd, NATONE 7321",-41.1701,145.922,Montgomery,Burnie City
North Motton,Braddon,9,276,3.3,-6.3,North Motton Hall,"578 Preston Rd, NORTH MOTTON 7315",-41.20637,146.10937,Montgomery,Central Coast
Penguin,Braddon,118,1853,6.4,-0.8,Penguin Uniting Church Hall,"50 Main Rd, PENGUIN 7316",-41.112,146.071,Montgomery,Central Coast
Port Sorell,Braddon,125,2165,5.8,-0.2,Port Sorell Memorial Hall,"cnr Meredith St & Darling St, PORT SORELL 7307",-41.165409,146.555718,Mersey,Latrobe
Preston,Braddon,6,123,4.9,-2.1,Preston Community Centre,"1833 Preston Rd, PRESTON 7315",-41.2972,146.062,Montgomery,Central Coast
Queenstown,Braddon,21,549,3.8,0.7,Queenstown Memorial Hall,"53 Orr St, QUEENSTOWN 7467",-42.0802,145.558,Murchison,West Coast
Riana,Braddon,10,178,5.6,1.6,Riana Community Centre,"1221 Pine Rd, RIANA 7316",-41.2015,145.999,Montgomery,Central Coast
Ridgley,Braddon,14,537,2.6,-0.8,Ridgley Primary School,"904 Ridgley Hwy, RIDGLEY 7321",-41.1398,145.837,Montgomery,Burnie City
Rocky Cape,Braddon,5,371,1.3,-2.9,Rocky Cape Public Hall,"19074 Bass Hwy, ROCKY CAPE 7321",-40.905,145.487,Murchison,Circular Head
Romaine,Braddon,45,1277,3.5,0.3,Romaine Park Primary School,"cnr Roslyn Ave & Mount St, ROMAINE 7320",-41.076634,145.899584,Montgomery,Burnie City
Rosebery,Braddon,12,329,3.6,1.2,Rosebery Neighbourhood Centre,"8 Agnes St, ROSEBERY 7470",-41.779832,145.539126,Murchison,West Coast
Sassafras,Braddon,3,242,1.2,-2.8,Sassafras Primary School,"50 School Rd, SASSAFRAS 7307",-41.2871,146.503,Mersey,Latrobe
Savage River,Braddon,0,68,0.0,0.0,Grange Resources Lodge,"45 Corinna Rd, SAVAGE RIVER 7321",-41.5119,145.219,Murchison,Waratah-Wynyard
Shorewell Park,Braddon,30,799,3.8,-1.6,Hellyer College,"41-43 Mooreville Rd, SHOREWELL PARK 7320",-41.06128,145.88153,Murchison,Burnie City
Sisters Beach,Braddon,23,198,11.6,-2.6,Sisters Beach Fire Station,"34 Honeysuckle Ave, SISTERS BEACH 7321",-40.9181,145.565,Murchison,Waratah-Wynyard
Sisters Creek,Braddon,12,115,10.4,0.5,Myalla Community Centre,"29 Myalla Rd, SISTERS CREEK 7325",-40.964904,145.572884,Murchison,Waratah-Wynyard
Smithton,Braddon,31,1756,1.8,-0.4,Smithton Primary School,"27-43 Grant St, SMITHTON 7330",-40.849445,145.116059,Murchison,Circular Head
Somerset,Braddon,52,1456,3.6,-1.2,Somerset Primary School,"30A Beaufort St, SOMERSET 7322",-41.038182,145.819344,Murchison,Waratah-Wynyard
South Riana,Braddon,11,169,6.5,-1.6,South Riana Hall,"776 South Riana Rd, SOUTH RIANA 7316",-41.2345,145.977,Montgomery,Central Coast
Sprent,Braddon,16,196,8.2,0.2,Sprent Primary School,"1245 Castra Rd, SPRENT 7315",-41.2627,146.16,Montgomery,Central Coast
Spreyton,Braddon,40,1326,3.0,-0.5,Spreyton Primary School,"1 Mersey Main Rd, SPREYTON 7310",-41.21207,146.34434,Mersey,Devonport City
Stanley,Braddon,27,403,6.7,1.0,Stanley Primary School,"28 Pearse St, STANLEY 7331",-40.7603,145.291,Murchison,Circular Head
Stowport,Braddon,14,223,6.3,2.0,Stowport Public Hall,"580 Stowport Rd, STOWPORT 7321",-41.1124,145.929,Montgomery,Burnie City
Strahan,Braddon,17,331,5.1,2.5,Strahan Primary School,"2 Bay St, STRAHAN 7468",-42.154043,145.320404,Murchison,West Coast
Sulphur Creek,Braddon,36,604,6.0,0.8,Sulphur Creek Hall,"310 Preservation Dr, SULPHUR CREEK 7316",-41.0935,146.026,Montgomery,Central Coast
Tullah,Braddon,2,103,1.9,-0.1,Tullah Community Hall,"24 Farrell St, TULLAH 7321",-41.737568,145.616076,Murchison,West Coast
Turners Beach,Braddon,59,875,6.7,-0.1,Turners Beach Hall,"Henry St, TURNERS BEACH 7315",-41.1589,146.244,Montgomery,Central Coast
Ulverstone Central,Braddon,54,977,5.5,-0.5,Ulverstone Senior Citizens Club,"16 King Edward St, ULVERSTONE 7315",-41.15507,146.171931,Montgomery,Central Coast
Ulverstone East,Braddon,25,772,3.2,-1.0,East Ulverstone Primary School,"18 Crawford St, ULVERSTONE 7315",-41.1546,146.192,Montgomery,Central Coast
Ulverstone South,Braddon,83,1678,4.9,-0.3,Ulverstone High School,"38 Leven St, ULVERSTONE 7315",-41.16201,146.17091,Montgomery,Central Coast
Waratah,Braddon,6,126,4.8,1.6,Waratah Municipal Chambers,"12-14 Smith St, WARATAH 7321",-41.44422,145.5313,Murchison,Waratah-Wynyard
Wesley Vale,Braddon,27,323,8.4,-0.4,Andrews Creek Primary School,"20 Westwind Dr, WESLEY VALE 7307",-41.188828,146.456401,Mersey,Latrobe
West Ulverstone,Braddon,68,1252,5.4,1.4,West Ulverstone Primary School,"34 Maud St, WEST ULVERSTONE 7315",-41.1482,146.16,Montgomery,Central Coast
Wivenhoe,Braddon,20,479,4.2,0.0,Leighland Christian School (Wivenhoe Campus),"Stowport Rd, WIVENHOE 7320",-41.06904,145.93609,Montgomery,Burnie City
Wynyard Central,Braddon,81,1929,4.2,-0.9,Wynyard Senior Citizens Club Rooms,"28 Jackson St, WYNYARD 7325",-40.9909,145.729,Murchison,Waratah-Wynyard
Wynyard West,Braddon,42,1154,3.6,-3.3,Wynyard High School,"30 Church St, WYNYARD 7325",-40.9867,145.717,Murchison,Waratah-Wynyard
Yolla,Braddon,19,345,5.5,-0.1,Yolla District High School,"School Lane, YOLLA 7325",-41.1237,145.719,Murchison,Waratah-Wynyard
Zeehan,Braddon,17,345,4.9,3.4,Zeehan Primary School,"7 Belstead St, ZEEHAN 7469",-41.888,145.34,Murchison,West Coast
Beaconsfield,Bass,68,995,6.8,-0.4,Beaconsfield Senior Citizens' Hall,"121 Weld St, BEACONSFIELD 7270",-41.2024,146.819,Rosevears,West Tamar
Beauty Point,Bass,35,567,6.2,0.0,Tamar Yacht Club,"1 Wharf Rd, BEAUTY POINT 7270",-41.157461,146.822319,Rosevears,West Tamar
Branxholm,Bass,14,196,7.1,-3.0,Branxholm Community Hall,"Stoke St, BRANXHOLM 7261",-41.165606,147.73648,McIntyre,Dorset
Bridport,Bass,51,1027,5.0,-1.0,Bridport Hall,"Main St, BRIDPORT 7262",-41.0026,147.395,McIntyre,Dorset
Derby,Bass,24,132,18.2,5.6,Derby Town Hall,"1 Krushka St, DERBY 7264",-41.14933,147.80236,McIntyre,Dorset
Dilston,Bass,81,621,13.0,-0.2,Dilston War Memorial Hall,"308 John Lees Dr, DILSTON 7252",-41.3368,147.082,Windermere,Launceston City
East Launceston,Bass,329,1522,21.6,0.5,East Launceston Primary School,"18 Mary St, EAST LAUNCESTON 7250",-41.44144,147.151372,Launceston,Launceston City
Exeter,Bass,135,1220,11.1,0.0,Exeter High School Gymnasium,"28 Glen Ard Mohr Rd, EXETER 7275",-41.2996,146.957,Rosevears,West Tamar
Five Ways,Bass,137,788,17.4,7.4,Kim Roe School of Dance,"89-91 Meredith Cres, SOUTH LAUNCESTON 7249",-41.457583,147.151925,Launceston,Launceston City
George Town,Bass,72,1639,4.4,-0.7,George Town Memorial Hall,"29-67 Macquarie St, GEORGE TOWN 7253",-41.106907,146.821868,Windermere,George Town
George Town South,Bass,33,923,3.6,-0.7,South George Town Primary School,"Franklin St, GEORGE TOWN 7253",-41.1124,146.833,Windermere,George Town
Gladstone,Bass,10,133,7.5,0.7,Gladstone Hall,"1 Carr St, GLADSTONE 7264",-40.9601,148.008,McIntyre,Dorset
Glengarry,Bass,22,296,7.4,-1.3,Glengarry Catholic Church,"33 Glengarry Rd, GLENGARRY 7275",-41.335033,146.870343,Rosevears,West Tamar
Gravelly Beach,Bass,82,504,16.3,-3.0,Edinburgh Park Equestrian Centre,"401 Gravelly Beach Rd, GRAVELLY BEACH 7276",-41.2939,146.973,Rosevears,West Tamar
Hillwood,Bass,43,376,11.4,2.1,Hillwood Memorial Hall,"280 Hillwood Jetty Rd, HILLWOOD 7252",-41.236252,146.974945,Windermere,George Town
Inveresk,Bass,142,1049,13.5,0.6,Invermay Primary School,"35-43 Mayne St, INVERMAY 7248",-41.421676,147.131233,Windermere,Launceston City
Invermay,Bass,131,981,13.4,1.9,St Finn Barr's School,"247 Invermay Rd, INVERMAY 7248",-41.4157,147.132,Windermere,Launceston City
Karoola,Bass,29,328,8.8,-2.5,Karoola Hall,"1126 Pipers River Rd, KAROOLA 7267",-41.2539,147.148,Windermere,Launceston City
Kelso,Bass,32,311,10.3,0.5,Kelso Community Centre,"Foreshore Rd, KELSO 7270",-41.1037,146.794,Rosevears,West Tamar
Kings Meadows,Bass,143,1948,7.3,-0.2,YMCA Centre,"8A Blaydon St, KINGS MEADOWS 7249",-41.4677,147.16,Launceston,Launceston City
Lady Barron,Bass,7,119,5.9,-0.3,Lady Barron Memorial Hall,"Main St, LADY BARRON 7255",-40.211081,148.240354,McIntyre,Flinders
Launceston,Bass,228,971,23.5,2.8,Pilgrim Hall,"36 Paterson St, LAUNCESTON 7250",-41.4366,147.137,Launceston,Launceston City
Launceston Central,Bass,319,1626,19.6,1.3,,"59 Bathurst St, LAUNCESTON 7250",-41.442151,147.136819,Launceston,Launceston City
Lebrina,Bass,33,210,15.7,5.8,Lebrina Memorial Hall,"905 Golconda Rd, LEBRINA 7254",-41.1773,147.228,Windermere,Launceston City
Legana,Bass,208,2163,9.6,,Legana Memorial Hall,"43 Fulton St, LEGANA 7277",-41.3632,147.047,Rosevears,West Tamar
Legana Central,Bass,31,253,12.3,,Legana Regis,"1-9 Freshwater Point Rd, LEGANA 7277",-41.363589,147.039797,Rosevears,West Tamar
Lilydale,Bass,91,648,14.0,-1.5,Lilydale Memorial Hall,"1949 Main Rd, LILYDALE 7268",-41.2523,147.216,Windermere,Launceston City
Mowbray,Bass,90,786,11.5,4.6,Launceston Church Grammar School,"36 Button St, MOWBRAY 7248",-41.40814,147.131059,Windermere,Launceston City
Newnham,Bass,108,1768,6.1,0.6,Launceston North Uniting Church,"128-132 George Town Rd, NEWNHAM 7248",-41.3873,147.128,Windermere,Launceston City
Newnham Alanvale,Bass,57,904,6.3,,North Launceston Bowls and Community Club,"1B George Town Rd, NEWNHAM 7248",-41.400285,147.128665,Windermere,Launceston City
Newstead,Bass,215,1723,12.5,-0.9,Police Citizens & Youth Club,"148 Abbott St, NEWSTEAD 7250",-41.4472,147.157,Launceston,Launceston City
Norwood,Bass,164,1802,9.1,1.6,Norwood Primary School,"103 Norwood Ave, NORWOOD 7250",-41.4621,147.174,Launceston,Launceston City
Norwood North,Bass,53,436,12.2,,Queechy High School,"161 Penquite Rd, NORWOOD 7250",-41.451953,147.176075,Launceston,Launceston City
Nunamara,Bass,27,263,10.3,-0.8,Nunamara Memorial Hall,"39461 Tasman Hwy, NUNAMARA 7259",-41.394,147.296,Windermere,Launceston City
Pipers River,Bass,8,231,3.5,-4.1,Pipers River Fire Station,"76 School Rd, PIPERS RIVER 7252",-41.1006,147.091,Windermere,George Town
Prospect (Bass),Bass,40,431,9.3,,St Patrick's College,"282 Westbury Rd, PROSPECT 7250",-41.472,147.126,Rosevears,Launceston City
Ravenswood,Bass,62,1473,4.2,-0.5,Ravenswood Primary School,"27 Prossers Forest Rd, RAVENSWOOD 7250",-41.415955,147.179654,Windermere,Launceston City
Ringarooma,Bass,8,289,2.8,-0.6,Ringarooma Hall,"4 Charles St, RINGAROOMA 7263",-41.24241,147.73568,McIntyre,Dorset
Riverside,Bass,78,844,9.2,-0.5,Launceston Christian School,"452a West Tamar Rd, RIVERSIDE 7250",-41.400582,147.091327,Rosevears,West Tamar
Riverside North,Bass,90,849,10.6,,Riverside Gospel Chapel,"453 West Tamar Rd, RIVERSIDE 7250",-41.40312,147.089092,Rosevears,West Tamar
Rocherlea,Bass,31,754,4.1,0.4,Brooks High School,"215 George Town Rd, ROCHERLEA 7248",-41.378531,147.121503,Windermere,Launceston City
Scottsdale,Bass,64,1521,4.2,0.4,Scottsdale High School,"20 Coplestone Rd, SCOTTSDALE 7260",-41.157117,147.508674,McIntyre,Dorset
Sidmouth,Bass,49,448,10.9,-4.2,Sidmouth Community Centre,"255 Batman Hwy, SIDMOUTH 7270",-41.2221,146.887,Rosevears,West Tamar
South Launceston,Bass,110,652,16.9,-0.8,Door of Hope,"50 Glen Dhu Street, LAUNCESTON 7250",-41.455287,147.140429,Rosevears,Launceston City
St Leonards,Bass,59,1177,5.0,-1.2,St Leonards Primary School,"330-342 St Leonards Rd, ST LEONARDS 7250",-41.4597,147.2,Windermere,Launceston City
Summerhill (Bass),Bass,124,2082,6.0,,Summerhill Baptist Church,"87 Stanley St, SUMMERHILL 7250",-41.465798,147.127238,Rosevears,Launceston City
Trevallyn Central,Bass,349,1422,24.5,,Trevallyn Life Church,"34 Pitt Ave, TREVALLYN 7250",-41.4301,147.106,Rosevears,West Tamar
Trevallyn,Bass,133,1303,10.2,-13.9,Trevallyn Primary School,"55 Gorge Rd, TREVALLYN 7250",-41.4381,147.115,Rosevears,West Tamar
Waverley,Bass,51,829,6.2,-0.1,Waverley School Hall,"6 Naroo St, WAVERLEY 7250",-41.4321,147.19,Windermere,Launceston City
West Launceston,Bass,275,1183,23.2,1.7,West Launceston Primary School,"24-38 Basin Rd, WEST LAUNCESTON 7250",-41.4492,147.129,Rosevears,Launceston City
Weymouth,Bass,11,159,6.9,-0.1,Weymouth Hall,"18 Major St, WEYMOUTH 7252",-41.0153,147.154,Windermere,George Town
Whitemark,Bass,54,369,14.6,2.2,Lions Club,"1 James St, WHITEMARK 7255",-40.1214,148.019,McIntyre,Flinders
Winnaleah,Bass,7,187,3.7,1.0,Winnaleah Memorial Hall,"20 Main St, WINNALEAH 7265",-41.0979,147.824,McIntyre,Dorset
Youngtown,Bass,97,1416,6.9,1.6,Youngtown Primary School,"Victoria St, YOUNGTOWN 7249",-41.4823,147.164,Launceston,Launceston City
Austins Ferry,Clark,122,1685,7.2,2.1,St Virgil's College,"195 Main Rd, AUSTINS FERRY 7011",-42.774487,147.251105,Derwent,Glenorchy City
Battery Point,Clark,348,1033,33.7,5.6,Albuera Street Primary School,"10A Albuera St, BATTERY POINT 7004",-42.8912,147.326,Hobart,Hobart City
Cascades,Clark,587,1130,51.9,8.7,South Hobart Primary School,"59 Anglesea St, SOUTH HOBART 7004",-42.892494,147.310633,Hobart,Hobart City
Chigwell,Clark,98,1262,7.8,2.0,Chigwell Barn,"10 Bucaan St, CHIGWELL 7011",-42.811194,147.241655,Derwent,Glenorchy City
Claremont,Clark,116,1374,8.4,2.8,Holy Rosary Catholic School,"29 Wyndham Rd, CLAREMONT 7011",-42.789471,147.248469,Derwent,Glenorchy City
Collinsvale,Clark,60,356,16.9,0.3,Collinsvale Primary School,"508 Collinsvale Rd, COLLINSVALE 7012",-42.8367,147.198,Elwick,Glenorchy City
Dynnyrne,Clark,394,1196,32.9,5.0,Princes Street Primary School,"Randall St, SANDY BAY 7005",-42.8984,147.319,Nelson,Hobart City
Fern Tree,Clark,268,519,51.6,10.0,Fern Tree Community Centre,"8 Stephenson Pl, FERN TREE 7054",-42.9223,147.262,Hobart,Hobart City
Glenorchy,Clark,286,2660,10.8,3.0,Glenorchy Primary School,"Kensington St, GLENORCHY 7010",-42.832391,147.266343,Elwick,Glenorchy City
Glenorchy Central,Clark,108,701,15.4,7.5,YMCA of Hobart,"8A Constance Ave, GLENORCHY 7010",-42.832197,147.278997,Elwick,Glenorchy City
Goodwood,Clark,57,447,12.8,3.5,Karadi Aboriginal Corporation,"4 Rothesay Cir, GOODWOOD 7010",-42.826763,147.292683,Elwick,Glenorchy City
Hobart City (Clark),Clark,351,904,38.8,,Hobart Voting Centre,"144 Macquarie St, HOBART 7000",-42.885224,147.327458,Hobart,Hobart City
Kingston (Clark),Clark,167,620,26.9,,Kingborough Community Hub,"7 Goshawk Way, KINGSTON 7050",-42.976944,147.308333,Nelson,Kingborough
Kingston Beach (Clark),Clark,133,385,34.5,,Kingston Beach Hall,"20 Beach Rd, KINGSTON BEACH 7050",-42.981534,147.323507,Nelson,Kingborough
Lenah Valley,Clark,596,2361,25.2,5.5,Lenah Valley Primary School,"11 Creek Rd, LENAH VALLEY 7008",-42.8612,147.29,Elwick,Hobart City
Lower Sandy Bay,Clark,266,1534,17.3,3.5,St Stephen's Church Hall,"520 Sandy Bay Rd, SANDY BAY 7005",-42.9087,147.346,Nelson,Hobart City
Lutana,Clark,166,883,18.8,6.4,Southern ITF Taekwon-Do,"12 Ashbolt Cres, LUTANA 7009",-42.843166,147.309154,Elwick,Glenorchy City
Merton,Clark,197,1640,12.0,3.2,Tolosa Hall,"148 Tolosa St, GLENORCHY 7010",-42.8455,147.265,Elwick,Glenorchy City
Moonah,Clark,273,1564,17.5,4.0,Salvation Army Community Centre,"73 Hopkins St, MOONAH 7009",-42.845951,147.296066,Elwick,Glenorchy City
Moonah East,Clark,214,1139,18.8,3.6,Bowen Road Primary School,"35 Bowen Rd, MOONAH 7009",-42.8474,147.308,Elwick,Glenorchy City
Moonah North,Clark,274,1482,18.5,5.1,Moonah Primary School,"40 Derwent Park Rd, MOONAH 7009",-42.838,147.296,Elwick,Glenorchy City
Mount Nelson,Clark,399,1327,30.1,4.6,Mt Nelson Primary School,"388 Nelson Rd, MOUNT NELSON 7007",-42.9136,147.323,Nelson,Hobart City
Mount Stuart,Clark,321,1032,31.1,3.5,Mt Stuart Primary School,"106 Gillon Cres, MOUNT STUART 7000",-42.875,147.299,Hobart,Hobart City
New Town,Clark,335,1100,30.5,4.8,The Friends School,"393 Argyle St, NORTH HOBART 7000",-42.867,147.316,Hobart,Hobart City
New Town West,Clark,488,2064,23.6,2.4,Sacred Heart College,"67 Clare St, NEW TOWN 7008",-42.8615,147.304,Hobart,Hobart City
North Hobart Central,Clark,488,1398,34.9,4.4,Hobart North Uniting Church,"2 Swan St, NORTH HOBART 7000",-42.8728,147.314,Hobart,Hobart City
Roseneath,Clark,64,723,8.9,4.5,Austins Ferry Primary School,"13 Brodie St, CLAREMONT 7011",-42.78618,147.240549,Derwent,Glenorchy City
Rosetta,Clark,117,755,15.5,,Rosetta Primary School,"32 Riverview Pde, ROSETTA 7010",-42.821437,147.258738,Elwick,Glenorchy City
Sandfly (Clark),Clark,76,303,25.1,,Sandfly Hall,"811 Sandfly Rd, SANDFLY 7150",-42.985,147.196,Huon,Kingborough
Sandy Bay,Clark,272,1113,24.4,5.1,Wellspring Anglican Church Hall,"43 Grosvenor St, SANDY BAY 7005",-42.8992,147.327,Nelson,Hobart City
Sandy Bay Beach,Clark,84,607,13.8,3.0,Harold Gregg Centre,"1 Southerwood Dr, SANDY BAY 7005",-42.9138,147.355,Nelson,Hobart City
South Hobart,Clark,493,1292,38.2,3.4,St Francis Xavier's Church Hall,"34 Anglesea St, SOUTH HOBART 7004",-42.8949,147.312,Hobart,Hobart City
Taroona,Clark,574,1486,38.6,2.8,Taroona Primary School,"104 Channel Hwy, TAROONA 7053",-42.943302,147.352737,Nelson,Hobart City
Waimea Heights,Clark,189,931,20.3,5.0,Waimea Heights Primary School,"12 Balfour Ct, SANDY BAY 7005",-42.909011,147.33674,Nelson,Hobart City
West Hobart,Clark,308,848,36.3,8.1,St Mary's College,"164 Harrington St, HOBART 7000",-42.881216,147.320448,Hobart,Hobart City
West Hobart Central,Clark,616,1739,35.4,3.2,Lansdowne Crescent Primary School,"15 Gourlay St, WEST HOBART 7000",-42.8819,147.309,Hobart,Hobart City
West Hobart South,Clark,401,969,41.4,4.1,Goulburn Street Primary School,"Forest Rd, WEST HOBART 7000",-42.8878,147.317,Hobart,Hobart City
Windermere,Clark,113,1689,6.7,2.3,Windermere Primary School,"2 Cadbury Rd, CLAREMONT 7011",-42.80013,147.259102,Derwent,Glenorchy City
Adventure Bay,Franklin,43,170,25.3,3.0,Adventure Bay Hall,"Adventure Bay Rd, ADVENTURE BAY 7150",-43.3458,147.321,Huon,Kingborough
Alonnah,Franklin,68,276,24.6,3.3,Bruny Island District School,"15 School Rd, ALONNAH 7150",-43.31807,147.244455,Huon,Kingborough
Bellerive,Franklin,257,1555,16.5,3.4,St Mark's Church,"cnr Clarence St & Scott St, BELLERIVE 7018",-42.875156,147.371378,Pembroke,Clarence City
Blackmans Bay,Franklin,424,1796,23.6,7.6,Blackmans Bay Primary School,"177 Roslyn Ave, BLACKMANS BAY 7052",-42.996938,147.321219,Nelson,Kingborough
Blackmans Bay South,Franklin,195,888,22.0,,Blackmans Bay Hall,"24 Ocean Esp, BLACKMANS BAY 7052",-43.0025,147.324,Huon,Kingborough
Cambridge,Franklin,210,1460,14.4,3.6,Cambridge Primary School,"976 Cambridge Rd, CAMBRIDGE 7170",-42.8362,147.442,Rumney,Clarence City
Clarence,Franklin,306,1752,17.5,3.6,Clarence High School,"25 Wentworth St, BELLERIVE 7018",-42.8784,147.389,Pembroke,Clarence City
Clarendon Vale,Franklin,38,774,4.9,0.9,Clarendon Vale Primary School,"25 Mockridge Rd, CLARENDON VALE 7019",-42.8873,147.445,Rumney,Clarence City
Cradoc,Franklin,116,576,20.1,3.6,Cradoc Park,"8243 Channel Hwy, CRADOC 7109",-43.1064,147.034,Huon,Huon Valley
Cygnet,Franklin,534,1752,30.5,4.3,Cygnet Town Hall,"14 Mary St, CYGNET 7112",-43.161953,147.077734,Huon,Huon Valley
Dover,Franklin,76,655,11.6,3.4,Dover District High School,"6940 Huon Hwy, DOVER 7117",-43.3105,147.013,Huon,Huon Valley
Franklin,Franklin,152,633,24.0,3.3,Franklin Primary School,"10 New Rd, FRANKLIN 7113",-43.085654,147.012018,Huon,Huon Valley
Geeveston,Franklin,128,1071,12.0,1.3,Geeveston Primary School,"63 Arve Rd, GEEVESTON 7116",-43.1625,146.922,Huon,Huon Valley
Geilston Bay,Franklin,263,1887,13.9,3.8,Lindisfarne North Primary School,"271 East Derwent Hwy, GEILSTON BAY 7015",-42.8383,147.349,Pembroke,Clarence City
Glen Huon,Franklin,59,335,17.6,0.2,Glen Huon Primary School,"801 Glen Huon Rd, GLEN HUON 7109",-43.0278,146.962,Huon,Huon Valley
Hobart City (Franklin),Franklin,83,253,32.8,,144 Macquarie St,"Level 1, HOBART 7000",-42.885224,147.327458,,
Howden,Franklin,103,427,24.1,-1.9,Howden Fire Station,"392 Howden Rd, HOWDEN 7054",-43.019128,147.291545,Huon,Kingborough
Howrah,Franklin,300,2168,13.8,4.9,"Howrah Scout Hall, Howrah Primary School","7 Howrah Rd, HOWRAH 7018",-42.8819,147.404,Pembroke,Clarence City
Huonville,Franklin,187,1426,13.1,0.2,Huonville Primary School,"74 Wilmot Rd, HUONVILLE 7109",-43.02424,147.044783,Huon,Huon Valley
Judbury,Franklin,48,278,17.3,1.5,Judbury Hall,"1273 Glen Huon Rd, JUDBURY 7109",-42.9982,146.9283,Huon,Huon Valley
Kettering,Franklin,152,513,29.6,3.8,Kettering Community Centre,"2963 Channel Hwy, KETTERING 7155",-43.1257,147.247,Huon,Kingborough
Kingston (Franklin),Franklin,436,2251,19.4,5.4,Kingborough Community Hub,"7 Goshawk Way, KINGSTON 7050",-42.976944,147.308333,Nelson,Kingborough
Kingston Beach (Franklin),Franklin,409,1701,24.0,,Kingston Beach Hall,"20 Beach Rd, KINGSTON BEACH 7050",-42.981534,147.323507,Nelson,Kingborough
Lauderdale,Franklin,372,2277,16.3,3.4,Lauderdale Community Hall,"528A South Arm Rd, LAUDERDALE 7021",-42.913663,147.48627,Rumney,Clarence City
Lindisfarne,Franklin,280,1423,19.7,4.4,Lindisfarne Primary School,"17 Loatta Rd, LINDISFARNE 7015",-42.8519,147.363,Pembroke,Clarence City
Lindisfarne Village,Franklin,274,1467,18.7,6.4,Lindisfarne Citizens Activities Centre,"37A Lincoln St, LINDISFARNE 7015",-42.847111,147.355308,Pembroke,Clarence City
Maranoa Heights,Franklin,202,1523,13.3,4.3,Southern Christian College,"150 Redwood Rd, KINGSTON 7050",-42.9896,147.309,Nelson,Kingborough
Margate,Franklin,395,2008,19.7,2.0,Margate Hall,"1744 Channel Hwy, MARGATE 7054",-43.029,147.263,Huon,Kingborough
Middleton,Franklin,60,281,21.4,0.7,South Channel Community Centre,"25 McDowall St, MIDDLETON 7163",-43.2311,147.256,Huon,Kingborough
Montagu Bay,Franklin,202,1107,18.2,4.5,Montagu Bay Primary School,"10 Conara Rd, MONTAGU BAY 7018",-42.8646,147.353,Pembroke,Clarence City
Mornington,Franklin,80,694,11.5,2.0,Citywide Baptist Church,"400 Cambridge Rd, MORNINGTON 7018",-42.856351,147.401753,Pembroke,Clarence City
Mountain River,Franklin,134,634,21.1,5.2,Mountain River Memorial Hall,"263 Mountain River Rd, MOUNTAIN RIVER 7109",-42.9614,147.109,Huon,Huon Valley
Ranelagh,Franklin,152,1014,15.0,2.7,Ranelagh Memorial Hall,"40 Marguerite St, RANELAGH 7109",-43.0086,147.039,Huon,Huon Valley
Risdon Vale,Franklin,76,1150,6.6,0.7,Risdon Vale Primary School,"2 Heather Rd, RISDON VALE 7016",-42.8131,147.354,Rumney,Clarence City
Rokeby,Franklin,125,1448,8.6,3.6,Rokeby Primary School,"73 Burtonia St, ROKEBY 7019",-42.898953,147.433723,Rumney,Clarence City
Sandfly (Franklin),Franklin,184,779,23.6,0.4,Sandfly Hall,"811 Sandfly Rd, SANDFLY 7150",-42.985,147.196,Huon,Kingborough
Sandford,Franklin,302,1343,22.5,1.2,Sandford Hall,"949 South Arm Rd, SANDFORD 7020",-42.9402,147.495,Rumney,Clarence City
Seven Mile Beach,Franklin,175,850,20.6,8.0,Ramada Resort By Wyndham Seven Mile Beach,"78 Surf Rd, SEVEN MILE BEACH 7170",-42.8526,147.511,Rumney,Clarence City
Snug,Franklin,267,1173,22.8,3.5,Snug Primary School,"2208 Channel Hwy, SNUG 7054",-43.0664,147.255,Huon,Kingborough
South Arm,Franklin,142,654,21.7,4.0,South Arm Primary School,"32 Harmony Lane, SOUTH ARM 7022",-43.0264,147.421,Rumney,Clarence City
Southport,Franklin,22,163,13.5,-10.8,Southport Community Centre,"8606 Huon Hwy, SOUTHPORT 7109",-43.418985,146.959638,Huon,Huon Valley
Tranmere,Franklin,279,2117,13.2,3.5,Tranmere Hall,"27 Tranmere Rd, HOWRAH 7018",-42.8911,147.409,Pembroke,Clarence City
Warrane,Franklin,221,1751,12.6,3.5,Warrane Primary School,"213 Cambridge Rd, WARRANE 7018",-42.86115,147.38256,Pembroke,Clarence City
Woodbridge,Franklin,164,496,33.1,4.5,Woodbridge Hall,"3445 Channel Hwy, WOODBRIDGE 7162",-43.1601,147.239,Huon,Kingborough
Avoca,Lyons,7,145,4.8,0.3,Avoca Primary School,"26-30 St Pauls St, AVOCA 7213",-41.782233,147.726685,McIntyre,Northern Midlands
Bagdad,Lyons,39,718,5.4,0.3,Bagdad Primary School,"46 School Rd, BAGDAD 7030",-42.6249,147.223,Prosser,Southern Midlands
Bicheno,Lyons,101,569,17.8,5.4,Bicheno War Memorial Hall,"78 Burgess St, BICHENO 7215",-41.8743,148.3003,Prosser,Glamorgan-Spring Bay
Bothwell,Lyons,10,333,3.0,0.6,Bothwell Council Chambers,"19 Alexander St, BOTHWELL 7030",-42.3819,147.006,Derwent,Central Highlands
Bracknell,Lyons,22,451,4.9,-1.4,Bracknell War Memorial Hall,"Louisa St, BRACKNELL 7302",-41.6512,146.943,McIntyre,Meander Valley
Bridgewater,Lyons,83,1944,4.3,0.6,Brighton Civic Centre,"25 Green Point Rd, BRIDGEWATER 7030",-42.739164,147.243512,Derwent,Brighton
Brighton,Lyons,132,2231,5.9,2.7,Brighton Primary School,"27 Downie St, BRIGHTON 7030",-42.6991,147.258,Derwent,Brighton
Broadmarsh,Lyons,16,235,6.8,1.1,Broadmarsh Hall,"1218 Elderslie Rd, BROADMARSH 7030",-42.6567,147.126,Prosser,Southern Midlands
Campania,Lyons,49,558,8.8,2.3,Campania Hall,"45 Reeve St, CAMPANIA 7026",-42.667109,147.421053,Prosser,Southern Midlands
Campbell Town,Lyons,36,677,5.3,3.1,Campbell Town Town Hall,"75 High St, CAMPBELL TOWN 7210",-41.926995,147.494438,Prosser,Northern Midlands
Carlton,Lyons,53,286,18.5,,Salvation Army Carlton,"225-227 Carlton River Rd, CARLTON 7173",-42.863899,147.639051,Prosser,Sorell
Carrick,Lyons,36,596,6.0,0.2,Carrick Public Hall,"29 Meander Valley Rd, CARRICK 7291",-41.530917,147.011259,McIntyre,Meander Valley
Chudleigh,Lyons,28,262,10.7,-5.3,Chudleigh Memorial Hall,"54 Sorell St, CHUDLEIGH 7304",-41.557239,146.481292,McIntyre,Meander Valley
Claude Road,Lyons,50,393,12.7,1.1,Claude Road Memorial Hall,"787 Claude Rd, CLAUDE ROAD 7306",-41.4343,146.275,Montgomery,Kentish
Colebrook,Lyons,12,159,7.5,4.1,Colebrook Memorial Hall,"45 Richmond St, COLEBROOK 7027",-42.533165,147.362604,Prosser,Southern Midlands
Coles Bay,Lyons,32,146,21.9,-3.7,Coles Bay Community Hall,"60 Harold St, COLES BAY 7215",-42.1249,148.286,Prosser,Glamorgan-Spring Bay
Copping,Lyons,39,214,18.2,-9.3,Copping Hall,"69 Allanby St, COPPING 7174",-42.819982,147.802747,Prosser,Sorell
Cressy,Lyons,29,641,4.5,1.4,Cressy Community Hall,"67 Main St, CRESSY 7302",-41.685476,147.080745,McIntyre,Northern Midlands
Deloraine,Lyons,239,1787,13.4,2.5,Deloraine High School Hall,"East Barrack St, DELORAINE 7304",-41.52917,146.66111,McIntyre,Meander Valley
Dodges Ferry,Lyons,236,1309,18.0,1.5,Dodges Ferry Community Recreation Centre,"532 Old Forcett Rd, DODGES FERRY 7173",-42.8485,147.624,Prosser,Sorell
Dromedary,Lyons,29,357,8.1,-2.2,Dromedary (Millvale) Community Hall,"14 Millvale Rd, DROMEDARY 7030",-42.7282,147.179,Derwent,Brighton
Dunalley,Lyons,57,322,17.7,4.0,Dunalley Community Hall,"5 Franklin St, DUNALLEY 7177",-42.887008,147.812638,Prosser,Sorell
Elizabeth Town,Lyons,23,329,7.0,-3.0,Elizabeth Town Fire Station,"5816 Bass Hwy, ELIZABETH TOWN 7304",-41.461865,146.563813,McIntyre,Meander Valley
Epping Forest,Lyons,6,144,4.2,,Epping Hall,"13517 Midland Hwy, EPPING FOREST 7211",-41.758076,147.349062,McIntyre,Northern Midlands
Evandale,Lyons,85,875,9.7,-0.2,Evandale Primary School,"5-11 Barclay St, EVANDALE 7212",-41.5672,147.247,McIntyre,Northern Midlands
Fingal,Lyons,8,261,3.1,-1.5,Fingal Activity Centre (former Council Chambers),"29 Talbot St, FINGAL 7214",-41.638074,147.970144,McIntyre,Break O'Day
Forcett,Lyons,47,387,12.1,5.1,Forcett Public Hall,"699 Arthur Hwy, FORCETT 7173",-42.806209,147.631863,Prosser,Sorell
Gagebrook,Lyons,40,923,4.3,0.1,Gagebrook Primary School,"4 Tottenham Rd, GAGEBROOK 7030",-42.7488,147.276,Derwent,Brighton
Glenora,Lyons,20,303,6.6,3.0,Glenora District High School,"620 Gordon River Rd, GLENORA 7140",-42.6969,146.889,Derwent,Derwent Valley
Granton,Lyons,33,584,5.7,0.4,Granton Memorial Hall,"1 Lyell Hwy, GRANTON 7030",-42.7498,147.224,Derwent,Derwent Valley
Hadspen,Lyons,54,1160,4.7,-0.3,Hadspen Uniting Church Centre,"47 Main St, HADSPEN 7290",-41.5064,147.064,Launceston,Meander Valley
Hagley,Lyons,19,299,6.4,0.2,Hagley Farm Primary School,"2508 Meander Valley Rd, HAGLEY 7292",-41.526508,146.903129,McIntyre,Meander Valley
Kempton,Lyons,12,343,3.5,-1.1,Kempton Memorial Hall,"89 Main St, KEMPTON 7030",-42.531821,147.200647,Prosser,Southern Midlands
Lachlan,Lyons,55,443,12.4,-0.5,Lachlan Community Hall,"511 Lachlan Rd, LACHLAN 7140",-42.8304,147.043,Derwent,Derwent Valley
Longford,Lyons,90,2004,4.5,-0.8,Longford War Memorial Hall,"53 Wellington St, LONGFORD 7301",-41.59314,147.121997,McIntyre,Northern Midlands
Lower Barrington,Lyons,35,551,6.4,-3.0,Lower Barrington Public Hall,"1027 Sheffield Rd, LOWER BARRINGTON 7306",-41.291,146.291,Montgomery,Kentish
Magra,Lyons,18,541,3.3,0.0,Magra CWA Building,"377 Back River Rd, MAGRA 7140",-42.7559,147.054,Derwent,Derwent Valley
Meander,Lyons,32,238,13.4,-3.0,Meander Hall,"124 Main Rd, MEANDER 7304",-41.65198,146.609993,McIntyre,Meander Valley
Midway Point,Lyons,114,1088,10.5,3.6,Midway Point Community Hall,"34 Raynors Rd, MIDWAY POINT 7171",-42.7997,147.533,Rumney,Sorell
Miena,Lyons,15,186,8.1,4.2,Miena Community Centre,"55-57 Cider Gum Rd, MIENA 7030",-41.9937,146.708,Derwent,Central Highlands
Mole Creek,Lyons,30,314,9.6,-1.7,Mole Creek Primary School,"4 Caveside Rd, MOLE CREEK 7304",-41.557472,146.406501,McIntyre,Meander Valley
Molesworth,Lyons,42,313,13.4,-0.1,Molesworth Community Hall,"560 Molesworth Rd, MOLESWORTH 7140",-42.80423,147.161093,Derwent,Derwent Valley
New Norfolk,Lyons,162,1982,8.2,1.7,New Norfolk Primary School,"8 Pioneer Ave, NEW NORFOLK 7140",-42.7793,147.064,Derwent,Derwent Valley
New Norfolk North,Lyons,48,1141,4.2,1.8,Fairview Primary School,"211 Back River Rd, NEW NORFOLK 7140",-42.774251,147.04917,Derwent,Derwent Valley
Nubeena,Lyons,129,658,19.6,3.8,Tasman Civic Centre,"21 Clarke St, NUBEENA 7184",-43.099706,147.744677,Prosser,Tasman
Oatlands,Lyons,34,652,5.2,-0.2,Oatlands District High School,"27 Church St, OATLANDS 7120",-42.301506,147.371821,Prosser,Southern Midlands
Old Beach,Lyons,147,1610,9.1,3.3,Old Beach Community Centre,"86 Jetty Rd, OLD BEACH 7017",-42.77427,147.26576,Rumney,Brighton
Orford,Lyons,37,435,8.5,1.7,Orford Primary School,"35 Charles st, ORFORD 7190",-42.563502,147.87386,Prosser,Glamorgan-Spring Bay
Ouse,Lyons,12,275,4.4,2.5,Ouse Online Centre,"6947 Lyell Hwy, OUSE 7140",-42.485288,146.711018,Derwent,Central Highlands
Perth,Lyons,97,1749,5.5,1.5,Perth Community Centre,"173 Fairtlough St, PERTH 7300",-41.5725,147.173,McIntyre,Northern Midlands
Pontville,Lyons,37,680,5.4,1.2,Pontville Old Council Chambers,"371 Brighton Rd, PONTVILLE 7030",-42.683895,147.265554,Prosser,Brighton
Primrose Sands,Lyons,41,456,9.0,1.6,Primrose Sands Community Hall,"570 Primrose Sands Rd, PRIMROSE SANDS 7173",-42.892403,147.671829,Prosser,Sorell
Prospect (Lyons),Lyons,96,1391,6.9,,St Patrick's College,"282 Westbury Rd, PROSPECT 7250",-41.472,147.126,Rosevears,Launceston City
Prospect Vale,Lyons,76,1096,6.9,1.1,Residential Retirement Village Clubrooms,"12 Casino Rise, PROSPECT VALE 7250",-41.4782,147.11,Launceston,Meander Valley
Railton,Lyons,30,659,4.6,-2.9,Sheffield School - Railton Campus,"94 Foster St, RAILTON 7305",-41.3526,146.414,McIntyre,Kentish
Richmond,Lyons,107,854,12.5,1.3,Richmond Primary School,"Commercial Rd, RICHMOND 7025",-42.739282,147.437988,Rumney,Clarence City
Ross,Lyons,20,282,7.1,3.8,Ross Town Hall,"12 Bridge St, ROSS 7209",-42.031409,147.492498,Prosser,Northern Midlands
Scamander,Lyons,61,420,14.5,-0.3,Scamander Sports Complex,"1 Old Coach Rd, SCAMANDER 7215",-41.454218,148.26009,McIntyre,Break O'Day
Sheffield,Lyons,71,959,7.4,0.3,Sheffield School,"12 Henry St, SHEFFIELD 7306",-41.380689,146.330316,Montgomery,Kentish
Sorell,Lyons,134,1597,8.4,2.2,Sorell Memorial Hall,"47 Cole St, SORELL 7172",-42.780612,147.560628,Prosser,Sorell
Sorell South,Lyons,20,176,11.4,,Sorell School,"41 Gordon St, SORELL 7172",-42.7859,147.561,Prosser,Sorell
St Helens,Lyons,111,889,12.5,1.0,St Helens Memorial Hall,"39 Cecilia St, ST HELENS 7216",-41.322629,148.249351,McIntyre,Break O'Day
St Marys,Lyons,72,509,14.1,1.4,St Marys Community Hall,"23 Main St, ST MARYS 7215",-41.57969,148.18531,McIntyre,Break O'Day
Summerhill (Lyons),Lyons,25,386,6.5,,Summerhill Baptist Church,"87 Stanley St, SUMMERHILL 7250",-41.465798,147.127238,Rosevears,Launceston City
Swansea,Lyons,71,681,10.4,1.7,Swansea Town Hall,"12 Franklin St, SWANSEA 7190",-42.1245,148.077,Prosser,Glamorgan-Spring Bay
Taranna,Lyons,70,358,19.6,4.0,Tasman Peninsula Community Centre,"Gourlay Rd, TARANNA 7180",-43.037984,147.867522,Prosser,Tasman
Tea Tree,Lyons,23,240,9.6,-1.2,Tea Tree Community Hall,"Briar Banks Rd, TEA TREE 7017",-42.689533,147.323592,Prosser,Brighton
Triabunna,Lyons,23,637,3.6,-1.8,Triabunna Hall,"3 Vicary St, TRIABUNNA 7190",-42.50822,147.910384,Prosser,Glamorgan-Spring Bay
Tunnack,Lyons,8,254,3.1,-1.0,Tunnack Public Hall,"2147 Tunnack Rd, TUNNACK 7120",-42.456521,147.461779,Prosser,Southern Midlands
Westbury,Lyons,100,1197,8.4,-0.4,Westbury Town Hall,"26 Lyall St, WESTBURY 7303",-41.528106,146.83102,McIntyre,Meander Valley
Westerway,Lyons,42,411,10.2,3.0,Westerway Primary School,"1619 Gordon River Rd, WESTERWAY 7140",-42.6775,146.787,Derwent,Derwent Valley
Wilmot,Lyons,23,207,11.1,-5.4,Wilmot Memorial Hall,"53 Main St, WILMOT 7310",-41.3864,146.175,Montgomery,Kentish
