PollingPlaceNm,GreensVotes,TotalVotes,GreensPercentage,DivisionNm,LegCo,LocalCouncil,PremisesAddress,PremisesNm,Latitude,Longitude
Acton,67,1169,5.7,Braddon,Montgomery,Burnie City,"36 Thorne St, ACTON 7320",Burnie Child and Family Centre,-41.07264,145.89229
Boat Harbour,81,476,17.0,Braddon,Murchison,Waratah-Wynyard,"17386 Bass Hwy, BOAT HARBOUR 7321",Boat Harbour Primary School,-40.9452,145.636
Burnie,98,912,10.7,Braddon,Murchison,Burnie City,"80 Wilson St, BURNIE 7320",Burnie City Council Offices,-41.0532,145.906
Calder,17,179,9.5,Braddon,Murchison,Waratah-Wynyard,"1320 Calder Rd, CALDER 7325",Calder Hall,-41.0685,145.631
Cooee,52,730,7.1,Braddon,Murchison,Burnie City,"30 Fidler St, COOEE 7320",Cooee Primary School,-41.04076,145.86801
Currie,57,627,9.1,Braddon,Murchison,King Island,"10 George St, CURRIE 7256",Currie Town Hall,-39.9298,143.855
Devonport,42,522,8.0,Braddon,Mersey,Devonport City,"11 Addison St, DEVONPORT 7310",Addison Street Scout Hall,-41.1737,146.344
Devonport Central,83,683,12.2,Braddon,Mersey,Devonport City,"57A Stewart St, DEVONPORT 7310",Devonport Primary School,-41.18004,146.358108
Devonport North West,209,2028,10.3,Braddon,Mersey,Devonport City,"60 Nixon St, DEVONPORT 7310",Nixon Street Primary School,-41.1728,146.337
Devonport South,86,919,9.4,Braddon,Mersey,Devonport City,"41-43 Middle Rd, DEVONPORT 7310",Reece High School,-41.1893,146.349
Devonport West,49,1026,4.8,Braddon,Mersey,Devonport City,"20-36 Valley Rd, DEVONPORT 7310",TasTafe,-41.1864,146.345
Don,34,945,3.6,Braddon,Mersey,Devonport City,"17 Forth Rd, DON 7310",Don Memorial Hall,-41.1827,146.318
East Devonport,98,1790,5.5,Braddon,Mersey,Devonport City,"19-21 Thomas St, EAST DEVONPORT 7310",East Devonport Primary School,-41.1779,146.372
Edith Creek,6,168,3.6,Braddon,Murchison,Circular Head,"1282 Trowutta Rd, EDITH CREEK 7330",Edith Creek Primary School,-40.9705,145.092
Elliott,29,420,6.9,Braddon,Murchison,Waratah-Wynyard,"829 Murchison Hwy, ELLIOTT 7325",Elliott Community Centre,-41.0922,145.782
Forest,10,389,2.6,Braddon,Murchison,Circular Head,"422 Mengha Rd, FOREST 7330",Forest Primary School,-40.8486,145.248
Forth,75,525,14.3,Braddon,Montgomery,Central Coast,"45 Wilmot Rd, FORTH 7310",Forth Primary School,-41.192921,146.248975
Gawler,17,436,3.9,Braddon,Montgomery,Central Coast,"15 Top Gawler Rd, GAWLER 7315",Gawler Hall,-41.1852,146.16
Grassy,4,108,3.7,Braddon,Murchison,King Island,"6 Fern Tree Dr, GRASSY 7256",Grassy Fire Station,-40.048254,144.050797
Havenview,27,422,6.4,Braddon,Montgomery,Burnie City,"15 Marriott St, HAVENVIEW 7320",Havenview Primary School,-41.0836,145.911
Heybridge,24,288,8.3,Braddon,Montgomery,Central Coast,"Sice Ave, HEYBRIDGE 7316",Blythe Heads Hall,-41.0751,145.986
Highclere,7,198,3.5,Braddon,Montgomery,Burnie City,"1558 Ridgley Hwy, HIGHCLERE 7321",Highclere Community Centre,-41.1904,145.806
Irishtown,6,320,1.9,Braddon,Murchison,Circular Head,"602 Irishtown Rd, IRISHTOWN 7330",Irishtown Sports Complex,-40.912449,145.143995
Latrobe,80,1155,6.9,Braddon,Mersey,Latrobe,"170 Gilbert St, LATROBE 7307",Latrobe Memorial Hall,-41.2365,146.415
Latrobe South,59,1052,5.6,Braddon,Mersey,Latrobe,"23 Lewis St, LATROBE 7307",Latrobe Primary School,-41.239619,146.416013
Marrawah,16,238,6.7,Braddon,Murchison,Circular Head,"844 Comeback Rd, MARRAWAH 7330",Marrawah Memorial Hall,-40.9229,144.697
Melrose,26,262,9.9,Braddon,Mersey,Devonport City,"673 Melrose Rd, MELROSE 7310",Melrose Memorial Hall,-41.2417,146.289
Montello,62,827,7.5,Braddon,Murchison,Burnie City,"83 Bird St, MONTELLO 7320",Montello Primary School,-41.0605,145.898
Moorleah,18,194,9.3,Braddon,Murchison,Waratah-Wynyard,"720 Preolenna Rd, MOORLEAH 7321",Moorleah Community Centre,-40.981,145.616
Moriarty,26,294,8.8,Braddon,Mersey,Latrobe,"1 Bonneys Lane, MORIARTY 7307",Moriarty Hall,-41.217206,146.481308
Natone,13,162,8.0,Braddon,Montgomery,Burnie City,"100 Upper Natone Rd, NATONE 7321",Natone Primary School,-41.1701,145.922
North Motton,11,273,4.0,Braddon,Montgomery,Central Coast,"578 Preston Rd, NORTH MOTTON 7315",North Motton Hall,-41.20637,146.10937
Penguin,179,1399,12.8,Braddon,Montgomery,Central Coast,"105 Ironcliffe Rd, PENGUIN 7316",Penguin District School,-41.127171,146.067557
Port Sorell,126,1345,9.4,Braddon,Mersey,Latrobe,"cnr Meredith St & Darling St, PORT SORELL 7307",Port Sorell Memorial Hall,-41.165409,146.555718
Port Sorell West,66,722,9.1,Braddon,Mersey,Latrobe,"Pitcairn St, PORT SORELL 7307",Port Sorell Primary School,-41.163896,146.547898
Preston,7,112,6.2,Braddon,Montgomery,Central Coast,"1833 Preston Rd, PRESTON 7315",Preston Community Centre,-41.2972,146.062
Queenstown,31,487,6.4,Braddon,Murchison,West Coast,"53 Orr St, QUEENSTOWN 7467",Queenstown Memorial Hall,-42.0802,145.558
Riana,11,139,7.9,Braddon,Montgomery,Central Coast,"1221 Pine Rd, RIANA 7316",Riana Community Centre,-41.2015,145.999
Ridgley,18,490,3.7,Braddon,Montgomery,Burnie City,"904 Ridgley Hwy, RIDGLEY 7321",Ridgley Primary School,-41.1398,145.837
Rocky Cape,18,346,5.2,Braddon,Murchison,Circular Head,"19074 Bass Hwy, ROCKY CAPE 7321",Rocky Cape Public Hall,-40.905,145.487
Romaine,88,1226,7.2,Braddon,Montgomery,Burnie City,"cnr Roslyn Ave & Mount St, ROMAINE 7320",Romaine Park Primary School,-41.076634,145.899584
Rosebery,10,297,3.4,Braddon,Murchison,West Coast,"7 Morrisby St, ROSEBERY 7470",Rosebery District School,-41.781124,145.541541
Sassafras,2,218,0.9,Braddon,Mersey,Latrobe,"50 School Rd, SASSAFRAS 7307",Sassafras Primary School,-41.2871,146.503
Shorewell Park,79,856,9.2,Braddon,Murchison,Burnie City,"41-43 Mooreville Rd, SHOREWELL PARK 7320",Hellyer College,-41.06128,145.88153
Sisters Beach,39,236,16.5,Braddon,Murchison,Waratah-Wynyard,"34 Honeysuckle Ave, SISTERS BEACH 7321",Sisters Beach Fire Station,-40.9181,145.565
Sisters Creek,17,113,15.0,Braddon,Murchison,Waratah-Wynyard,"29 Myalla Rd, SISTERS CREEK 7325",Myalla Community Centre,-40.964904,145.572884
Smithton,61,1777,3.4,Braddon,Murchison,Circular Head,"27-43 Grant St, SMITHTON 7330",Smithton Primary School,-40.849445,145.116059
Somerset,88,1432,6.1,Braddon,Murchison,Waratah-Wynyard,"30A Beaufort St, SOMERSET 7322",Somerset Primary School,-41.038182,145.819344
South Riana,5,175,2.9,Braddon,Montgomery,Central Coast,"776 South Riana Rd, SOUTH RIANA 7316",South Riana Hall,-41.2345,145.977
Sprent,15,244,6.1,Braddon,Montgomery,Central Coast,"1245 Castra Rd, SPRENT 7315",Sprent Primary School,-41.2627,146.16
Spreyton,64,1202,5.3,Braddon,Mersey,Devonport City,"1 Mersey Main Rd, SPREYTON 7310",Spreyton Primary School,-41.21207,146.34434
Stanley,47,461,10.2,Braddon,Murchison,Circular Head,"28 Pearse St, STANLEY 7331",Stanley Primary School,-40.7603,145.291
Stowport,9,255,3.5,Braddon,Montgomery,Burnie City,"580 Stowport Rd, STOWPORT 7321",Stowport Public Hall,-41.1124,145.929
Strahan,17,271,6.3,Braddon,Murchison,West Coast,"2 Bay St, STRAHAN 7468",Strahan Primary School,-42.154043,145.320404
Sulphur Creek,73,722,10.1,Braddon,Montgomery,Central Coast,"310 Preservation Dr, SULPHUR CREEK 7316",Sulphur Creek Hall,-41.0935,146.026
Tullah,4,93,4.3,Braddon,Murchison,West Coast,"24 Farrell St, TULLAH 7321",Tullah Community Hall,-41.737568,145.616076
Turners Beach,80,853,9.4,Braddon,Montgomery,Central Coast,"Henry St, TURNERS BEACH 7315",Turners Beach Hall,-41.1589,146.244
Ulverstone Central,58,787,7.4,Braddon,Montgomery,Central Coast,"16 King Edward St, ULVERSTONE 7315",Ulverstone Senior Citizens Club,-41.15507,146.171931
Ulverstone East,38,615,6.2,Braddon,Montgomery,Central Coast,"18 Crawford St, ULVERSTONE 7315",East Ulverstone Primary School,-41.1546,146.192
Ulverstone South,108,1423,7.6,Braddon,Montgomery,Central Coast,"38 Leven St, ULVERSTONE 7315",Ulverstone High School,-41.16201,146.17091
Waratah,9,137,6.6,Braddon,Murchison,Waratah-Wynyard,"18 Smith St, WARATAH 7321",Waratah Athenaeum Hall,-41.444674,145.530829
Wesley Vale,23,337,6.8,Braddon,Mersey,Latrobe,"20 Westwind Dr, WESLEY VALE 7307",Andrews Creek Primary School,-41.188828,146.456401
West Ulverstone,79,1156,6.8,Braddon,Montgomery,Central Coast,"34 Maud St, WEST ULVERSTONE 7315",West Ulverstone Primary School,-41.1482,146.16
Wivenhoe,26,440,5.9,Braddon,Montgomery,Burnie City,"Stowport Rd, WIVENHOE 7320",Leighland Christian School (Wivenhoe Campus),-41.06904,145.93609
Wynyard Central,96,1451,6.6,Braddon,Murchison,Waratah-Wynyard,"28 Jackson St, WYNYARD 7325",Wynyard Senior Citizens Club Rooms,-40.9909,145.729
Wynyard West,97,1327,7.3,Braddon,Murchison,Waratah-Wynyard,"30 Church St, WYNYARD 7325",Wynyard High School,-40.9867,145.717
Yolla,18,377,4.8,Braddon,Murchison,Waratah-Wynyard,"School Lane, YOLLA 7325",Yolla District High School,-41.1237,145.719
Zeehan,13,331,3.9,Braddon,Murchison,West Coast,"7 Belstead St, ZEEHAN 7469",Zeehan Primary School,-41.888,145.34
Beaconsfield,67,781,8.6,Bass,Rosevears,West Tamar,"121 Weld St, BEACONSFIELD 7270",Beaconsfield Senior Citizens' Hall,-41.2024,146.819
Beauty Point,58,531,10.9,Bass,Rosevears,West Tamar,"Beatty St, BEAUTY POINT 7270",Beauty Point Uniting Church Hall,-41.148983,146.817506
Branxholm,19,197,9.6,Bass,McIntyre,Dorset,"Stoke St, BRANXHOLM 7261",Branxholm Community Hall,-41.165606,147.73648
Bridport,60,863,7.0,Bass,McIntyre,Dorset,"Main St, BRIDPORT 7262",Bridport Hall,-41.0026,147.395
Derby,8,80,10.0,Bass,McIntyre,Dorset,"1 Krushka St, DERBY 7264",Derby Town Hall,-41.14933,147.80236
Dilston,85,601,14.1,Bass,Windermere,Launceston City,"308 John Lees Dr, DILSTON 7252",Dilston War Memorial Hall,-41.3368,147.082
East Launceston,271,989,27.4,Bass,Launceston,Launceston City,"16-28 Oxford St, EAST LAUNCESTON 7250",Easst Launceston Pavillion,-41.441512,147.150987
Exeter,129,1039,12.4,Bass,Rosevears,West Tamar,"28 Glen Ard Mohr Rd, EXETER 7275",Exeter High School Gymnasium,-41.2996,146.957
Five Ways,119,700,17.0,Bass,Launceston,Launceston City,"6 Hobart Rd, SOUTH LAUNCESTON 7249",St Mark's Church Hall,-41.45908,147.15402
George Town,93,1345,6.9,Bass,Windermere,George Town,"29-67 Macquarie St, GEORGE TOWN 7253",George Town Memorial Hall,-41.106907,146.821868
George Town South,55,962,5.7,Bass,Windermere,George Town,"Franklin St, GEORGE TOWN 7253",South George Town Primary School,-41.1124,146.833
Gladstone,9,163,5.5,Bass,McIntyre,Dorset,"1 Carr St, GLADSTONE 7264",Gladstone Hall,-40.9601,148.008
Glengarry,35,262,13.4,Bass,Rosevears,West Tamar,"33 Glengarry Rd, GLENGARRY 7275",Glengarry Catholic Church,-41.335033,146.870343
Gravelly Beach,97,549,17.7,Bass,Rosevears,West Tamar,"401 Gravelly Beach Rd, GRAVELLY BEACH 7276",Edinburgh Park Equestrian Centre,-41.2939,146.973
Hillwood,55,392,14.0,Bass,Windermere,George Town,"280 Hillwood Jetty Rd, HILLWOOD 7252",Hillwood Memorial Hall,-41.236252,146.974945
Inveresk,165,825,20.0,Bass,Windermere,Launceston City,"35-43 Mayne St, INVERMAY 7248",Invermay Primary School,-41.421676,147.131233
Invermay,103,710,14.5,Bass,Windermere,Launceston City,"247 Invermay Rd, INVERMAY 7248",St Finn Barr's School,-41.4157,147.132
Karoola,20,295,6.8,Bass,Windermere,Launceston City,"1126 Pipers River Rd, KAROOLA 7267",Karoola Hall,-41.2539,147.148
Kelso,43,304,14.1,Bass,Rosevears,West Tamar,"Foreshore Rd, KELSO 7270",Kelso Community Centre,-41.1037,146.794
Kings Meadows,160,1268,12.6,Bass,Launceston,Launceston City,"8A Blaydon St, KINGS MEADOWS 7249",YMCA Centre,-41.4677,147.16
Kings Meadows South,33,224,14.7,Bass,Launceston,Launceston City,"93 Guy St, KINGS MEADOWS 7249",Kings Meadows High School,-41.473804,147.159527
Lady Barron,9,139,6.5,Bass,McIntyre,Flinders,"Main St, LADY BARRON 7255",Lady Barron Memorial Hall,-40.211081,148.240354
Launceston,217,696,31.2,Bass,Launceston,Launceston City,"36 Paterson St, LAUNCESTON 7250",Pilgrim Hall,-41.4366,147.137
Launceston Central,326,1479,22.0,Bass,Launceston,Launceston City,"59 Bathurst St, LAUNCESTON 7250",,-41.442151,147.136819
Lebrina,20,223,9.0,Bass,Windermere,Launceston City,"905 Golconda Rd, LEBRINA 7254",Lebrina Memorial Hall,-41.1773,147.228
Legana,248,1809,13.7,Bass,Rosevears,West Tamar,"43 Fulton St, LEGANA 7277",Legana Memorial Hall,-41.3632,147.047
Legana Central,28,281,10.0,Bass,Rosevears,West Tamar,"1 Gerrard Cl, LEGANA 7277",Legana Christian Church,-41.370142,147.040425
Lilydale,105,639,16.4,Bass,Windermere,Launceston City,"1949 Main Rd, LILYDALE 7268",Lilydale Memorial Hall,-41.2523,147.216
Mowbray,82,574,14.3,Bass,Windermere,Launceston City,"36 Button St, MOWBRAY 7248",Launceston Church Grammar School,-41.40814,147.131059
Newnham,115,1598,7.2,Bass,Windermere,Launceston City,"128-132 George Town Rd, NEWNHAM 7248",Launceston North Uniting Church,-41.3873,147.128
Newnham Alanvale,83,922,9.0,Bass,Windermere,Launceston City,"1B George Town Rd, NEWNHAM 7248",North Launceston Bowls and Community Club,-41.400285,147.128665
Newstead,260,1468,17.7,Bass,Launceston,Launceston City,"148 Abbott St, NEWSTEAD 7250",Police Citizens & Youth Club,-41.4472,147.157
Norwood,197,1546,12.7,Bass,Launceston,Launceston City,"103 Norwood Ave, NORWOOD 7250",Norwood Primary School,-41.4621,147.174
Norwood North,62,389,15.9,Bass,Launceston,Launceston City,"161 Penquite Rd, NORWOOD 7250",Queechy High School,-41.451953,147.176075
Nunamara,28,263,10.6,Bass,Windermere,Launceston City,"39461 Tasman Hwy, NUNAMARA 7259",Nunamara Memorial Hall,-41.394,147.296
Pipers River,19,218,8.7,Bass,Windermere,George Town,"76 School Rd, PIPERS RIVER 7252",Pipers River Fire Station,-41.1006,147.091
Prospect (Bass),53,360,14.7,Bass,Rosevears,Launceston City,"282 Westbury Rd, PROSPECT 7250",St Patrick's College,-41.472,147.126
Ravenswood,66,1176,5.6,Bass,Windermere,Launceston City,"27 Prossers Forest Rd, RAVENSWOOD 7250",Ravenswood Primary School,-41.415955,147.179654
Ringarooma,10,239,4.2,Bass,McIntyre,Dorset,"4 Charles St, RINGAROOMA 7263",Ringarooma Hall,-41.24241,147.73568
Riverside,144,1196,12.0,Bass,Rosevears,West Tamar,"354 West Tamar Hwy, RIVERSIDE 7250",Riverside High School,-41.40936,147.09861
Riverside North,30,298,10.1,Bass,Rosevears,West Tamar,"452a West Tamar Rd, RIVERSIDE 7250",Launceston Christian School,-41.400582,147.091327
Rocherlea,29,310,9.4,Bass,Windermere,Launceston City,"23-41 Archer St, ROCHERLEA 7248",Rocherlea Memorial Hall,-41.372975,147.13024
Scottsdale,75,1371,5.5,Bass,McIntyre,Dorset,"20 Coplestone Rd, SCOTTSDALE 7260",Scottsdale High School,-41.157117,147.508674
Sidmouth,42,418,10.0,Bass,Rosevears,West Tamar,"255 Batman Hwy, SIDMOUTH 7270",Sidmouth Community Centre,-41.2221,146.887
South Launceston,126,546,23.1,Bass,Rosevears,Launceston City,"50 Glen Dhu Street, LAUNCESTON 7250",Door of Hope,-41.455287,147.140429
St Leonards,76,914,8.3,Bass,Windermere,Launceston City,"330-342 St Leonards Rd, ST LEONARDS 7250",St Leonards Primary School,-41.4597,147.2
Summerhill (Bass),170,1628,10.4,Bass,Rosevears,Launceston City,"82-84 Stanley St, SUMMERHILL 7250",Summerdale Community Centre,-41.4683,147.12971
Trevallyn,185,1187,15.6,Bass,Rosevears,West Tamar,"34 Pitt Ave, TREVALLYN 7250",Trevallyn Life Church,-41.4301,147.106
Trevallyn Central,365,1154,31.6,Bass,Rosevears,West Tamar,"55 Gorge Rd, TREVALLYN 7250",Trevallyn Primary School,-41.4381,147.115
Waverley,58,781,7.4,Bass,Windermere,Launceston City,"6 Naroo St, WAVERLEY 7250",Waverley School Hall,-41.4321,147.19
West Launceston,282,961,29.3,Bass,Rosevears,Launceston City,"24-38 Basin Rd, WEST LAUNCESTON 7250",West Launceston Primary School,-41.4492,147.129
Weymouth,27,168,16.1,Bass,Windermere,George Town,"18 Major St, WEYMOUTH 7252",Weymouth Hall,-41.0153,147.154
Whitemark,39,300,13.0,Bass,McIntyre,Flinders,"1 James St, WHITEMARK 7255",Lions Club,-40.1214,148.019
Winnaleah,11,141,7.8,Bass,McIntyre,Dorset,"20 Main St, WINNALEAH 7265",Winnaleah Memorial Hall,-41.0979,147.824
Youngtown,103,1307,7.9,Bass,Launceston,Launceston City,"Victoria St, YOUNGTOWN 7249",Youngtown Primary School,-41.4823,147.164
Austins Ferry,136,1338,10.2,Clark,Derwent,Glenorchy City,"195 Main Rd, AUSTINS FERRY 7011",St Virgil's College,-42.774487,147.251105
Battery Point,320,843,38.0,Clark,Hobart,Hobart City,"10A Albuera St, BATTERY POINT 7004",Albuera Street Primary School,-42.8912,147.326
Cascades,326,693,47.0,Clark,Hobart,Hobart City,"64 Anglesea St, SOUTH HOBART 7004",C3 Church Convention Centre,-42.893165,147.30774
Chigwell,90,901,10.0,Clark,Derwent,Glenorchy City,"10 Bucaan St, CHIGWELL 7011",Chigwell Barn,-42.811194,147.241655
Claremont,122,988,12.3,Clark,Derwent,Glenorchy City,"29 Wyndham Rd, CLAREMONT 7011",Holy Rosary Catholic School,-42.789471,147.248469
Collinsvale,78,323,24.1,Clark,Elwick,Glenorchy City,"508 Collinsvale Rd, COLLINSVALE 7012",Collinsvale Primary School,-42.8367,147.198
Dynnyrne,488,1196,40.8,Clark,Nelson,Hobart City,"Randall St, SANDY BAY 7005",Princes Street Primary School,-42.8984,147.319
Fern Tree,247,539,45.8,Clark,Hobart,Hobart City,"8 Stephenson Pl, FERN TREE 7054",Fern Tree Community Centre,-42.9223,147.262
Glenorchy,286,2059,13.9,Clark,Elwick,Glenorchy City,"Kensington St, GLENORCHY 7010",Glenorchy Primary School,-42.832391,147.266343
Glenorchy Central,109,545,20.0,Clark,Elwick,Glenorchy City,"8A Constance Ave, GLENORCHY 7010",YMCA of Hobart,-42.832197,147.278997
Goodwood,57,387,14.7,Clark,Elwick,Glenorchy City,"Elmsleigh Rd, MOONAH 7009",Goodwood Primary School,-42.831689,147.293744
Hobart City (Clark),423,1053,40.2,Clark,Hobart,Hobart City,"57-63 Macquarie St, HOBART 7000",City Hall,-42.880478,147.331554
Kingston (Clark),147,505,29.1,Clark,Nelson,Kingborough,"7 Goshawk Way, KINGSTON 7050",Kingborough Community Hub,-42.976944,147.308333
Kingston Beach (Clark),91,291,31.3,Clark,Nelson,Kingborough,"20 Beach Rd, KINGSTON BEACH 7050",Kingston Beach Hall,-42.981534,147.323507
Lenah Valley,644,2101,30.7,Clark,Elwick,Hobart City,"11 Creek Rd, LENAH VALLEY 7008",Lenah Valley Primary School,-42.8612,147.29
Lower Sandy Bay,217,904,24.0,Clark,Nelson,Hobart City,"568 Sandy Bay Rd, SANDY BAY 7005",Sandy Bay Infant School,-42.909594,147.34935
Lutana,207,789,26.2,Clark,Elwick,Glenorchy City,"12 Ashbolt Cres, LUTANA 7009",Southern ITF Taekwon-Do,-42.843166,147.309154
Merton,209,1319,15.8,Clark,Elwick,Glenorchy City,"148 Tolosa St, GLENORCHY 7010",Tolosa Hall,-42.8455,147.265
Moonah,238,982,24.2,Clark,Elwick,Glenorchy City,"7 Gormanston Rd, MOONAH 7009",Moonah Community Centre,-42.846325,147.299722
Moonah East,260,1009,25.8,Clark,Elwick,Glenorchy City,"35 Bowen Rd, MOONAH 7009",Bowen Road Primary School,-42.8474,147.308
Moonah North,364,1354,26.9,Clark,Elwick,Glenorchy City,"40 Derwent Park Rd, MOONAH 7009",Moonah Primary School,-42.838,147.296
Mount Nelson,410,1190,34.5,Clark,Nelson,Hobart City,"388 Nelson Rd, MOUNT NELSON 7007",Mt Nelson Primary School,-42.9136,147.323
Mount Stuart,340,888,38.3,Clark,Hobart,Hobart City,"106 Gillon Cres, MOUNT STUART 7000",Mt Stuart Primary School,-42.875,147.299
New Town,248,745,33.3,Clark,Hobart,Hobart City,"393 Argyle St, NORTH HOBART 7000",The Friends School,-42.867,147.316
New Town Central,145,456,31.8,Clark,Hobart,Hobart City,"36 Forster St, NEW TOWN 7008",New Town Primary School,-42.857683,147.300576
New Town West,439,1437,30.5,Clark,Hobart,Hobart City,"67 Clare St, NEW TOWN 7008",Sacred Heart College,-42.8615,147.304
North Hobart Central,502,1240,40.5,Clark,Hobart,Hobart City,"2 Swan St, NORTH HOBART 7000",Hobart North Uniting Church,-42.8728,147.314
Roseneath,54,660,8.2,Clark,Derwent,Glenorchy City,"13 Brodie St, CLAREMONT 7011",Austins Ferry Primary School,-42.78618,147.240549
Rosetta,125,565,22.1,Clark,Elwick,Glenorchy City,"32 Riverview Pde, ROSETTA 7010",Rosetta Primary School,-42.821437,147.258738
Sandfly (Clark),90,281,32.0,Clark,Huon,Kingborough,"811 Sandfly Rd, SANDFLY 7150",Sandfly Hall,-42.985,147.196
Sandy Bay,331,1187,27.9,Clark,Nelson,Hobart City,"43 Grosvenor St, SANDY BAY 7005",Wellspring Anglican Church Hall,-42.8992,147.327
Sandy Bay Beach,112,595,18.8,Clark,Nelson,Hobart City,"1 Southerwood Dr, SANDY BAY 7005",Harold Gregg Centre,-42.9138,147.355
South Hobart,583,1296,45.0,Clark,Hobart,Hobart City,"34 Anglesea St, SOUTH HOBART 7004",St Francis Xavier's Church Hall,-42.8949,147.312
Taroona,625,1354,46.2,Clark,Nelson,Hobart City,"104 Channel Hwy, TAROONA 7053",Taroona Primary School,-42.943302,147.352737
Waimea Heights,241,933,25.8,Clark,Nelson,Hobart City,"12 Balfour Ct, SANDY BAY 7005",Waimea Heights Primary School,-42.909011,147.33674
West Hobart,161,369,43.6,Clark,Hobart,Hobart City,"94 Barrack St, HOBART 7000",Guilford Young College (Hobart Campus),-42.882847,147.317632
West Hobart Central,739,1632,45.3,Clark,Hobart,Hobart City,"15 Gourlay St, WEST HOBART 7000",Lansdowne Crescent Primary School,-42.8819,147.309
West Hobart South,465,975,47.7,Clark,Hobart,Hobart City,"Forest Rd, WEST HOBART 7000",Goulburn Street Primary School,-42.8878,147.317
Windermere,174,1345,12.9,Clark,Derwent,Glenorchy City,"2 Cadbury Rd, CLAREMONT 7011",Windermere Primary School,-42.80013,147.259102
Adventure Bay,32,148,21.6,Franklin,Huon,Kingborough,"Adventure Bay Rd, ADVENTURE BAY 7150",Adventure Bay Hall,-43.3458,147.321
Alonnah,73,246,29.7,Franklin,Huon,Kingborough,"15 School Rd, ALONNAH 7150",Bruny Island District School,-43.31807,147.244455
Bellerive,279,1007,27.7,Franklin,Pembroke,Clarence City,"20 Leslie St, BELLERIVE 7018",Bellerive Primary School,-42.872974,147.372791
Blackmans Bay,292,1157,25.2,Franklin,Nelson,Kingborough,"177 Roslyn Ave, BLACKMANS BAY 7052",Blackmans Bay Primary School,-42.996938,147.321219
Blackmans Bay South,245,1009,24.3,Franklin,Huon,Kingborough,"6 Tinderbox Rd, BLACKMANS BAY 7052",Illawarra Primary School,-43.00865,147.319378
Cambridge,210,1278,16.4,Franklin,Rumney,Clarence City,"976 Cambridge Rd, CAMBRIDGE 7170",Cambridge Primary School,-42.8362,147.442
Clarence,313,1529,20.5,Franklin,Pembroke,Clarence City,"25 Wentworth St, BELLERIVE 7018",Clarence High School,-42.8784,147.389
Clarendon Vale,72,854,8.4,Franklin,Rumney,Clarence City,"25 Mockridge Rd, CLARENDON VALE 7019",Clarendon Vale Primary School,-42.8873,147.445
Cradoc,146,563,25.9,Franklin,Huon,Huon Valley,"8243 Channel Hwy, CRADOC 7109",Cradoc Park,-43.1064,147.034
Cygnet,446,1459,30.6,Franklin,Huon,Huon Valley,"14 Mary St, CYGNET 7112",Cygnet Town Hall,-43.161953,147.077734
Dover,76,573,13.3,Franklin,Huon,Huon Valley,"6940 Huon Hwy, DOVER 7117",Dover District High School,-43.3105,147.013
Franklin,161,668,24.1,Franklin,Huon,Huon Valley,"3388 Huon Hwy, FRANKLIN 7113",Palais Theatre,-43.089027,147.010524
Geeveston,125,881,14.2,Franklin,Huon,Huon Valley,"63 Arve Rd, GEEVESTON 7116",Geeveston Primary School,-43.1625,146.922
Geilston Bay,252,1324,19.0,Franklin,Pembroke,Clarence City,"271 East Derwent Hwy, GEILSTON BAY 7015",Lindisfarne North Primary School,-42.8383,147.349
Glen Huon,52,304,17.1,Franklin,Huon,Huon Valley,"801 Glen Huon Rd, GLEN HUON 7109",Glen Huon Primary School,-43.0278,146.962
Hobart City (Franklin),67,245,27.3,Franklin,,,"57-63 Macquarie St, HOBART 7000",Hobart City Hall,-42.880478,147.331554
Howden,78,343,22.7,Franklin,Huon,Kingborough,"392 Howden Rd, HOWDEN 7054",Howden Fire Station,-43.019128,147.291545
Howrah,421,2155,19.5,Franklin,Pembroke,Clarence City,"7 Howrah Rd, HOWRAH 7018","Howrah Scout Hall, Howrah Primary School",-42.8819,147.404
Huonville,180,1152,15.6,Franklin,Huon,Huon Valley,"74 Wilmot Rd, HUONVILLE 7109",Huonville Primary School,-43.02424,147.044783
Judbury,60,272,22.1,Franklin,Huon,Huon Valley,"1273 Glen Huon Rd, JUDBURY 7109",Judbury Hall,-42.9982,146.9283
Kettering,127,492,25.8,Franklin,Huon,Kingborough,"2963 Channel Hwy, KETTERING 7155",Kettering Community Centre,-43.1257,147.247
Kingston (Franklin),407,1855,21.9,Franklin,Nelson,Kingborough,"7 Goshawk Way, KINGSTON 7050",Kingborough Community Hub,-42.976944,147.308333
Kingston Beach (Franklin),324,1163,27.9,Franklin,Nelson,Kingborough,"20 Beach Rd, KINGSTON BEACH 7050",Kingston Beach Hall,-42.981534,147.323507
Kingston South,55,254,21.7,Franklin,Nelson,Kingborough,"Kingston View Drive, KINGSTON 7050",Kingston Scout Hall,-42.972831,147.284727
Lauderdale,341,1763,19.3,Franklin,Rumney,Clarence City,"3 Acton Rd, LAUDERDALE 7021",Lauderdale Primary Sports Centre,-42.904254,147.478491
Lindisfarne,284,1179,24.1,Franklin,Pembroke,Clarence City,"17 Loatta Rd, LINDISFARNE 7015",Lindisfarne Primary School,-42.8519,147.363
Lindisfarne Village,320,1394,23.0,Franklin,Pembroke,Clarence City,"37A Lincoln St, LINDISFARNE 7015",Lindisfarne Citizens Activities Centre,-42.847111,147.355308
Maranoa Heights,135,1008,13.4,Franklin,Nelson,Kingborough,"150 Redwood Rd, KINGSTON 7050",Southern Christian College,-42.9896,147.309
Margate,341,1531,22.3,Franklin,Huon,Kingborough,"7 Van Morey Rd, MARGATE 7054",Margate Primary School,-43.028671,147.261676
Middleton,70,282,24.8,Franklin,Huon,Kingborough,"25 McDowall St, MIDDLETON 7163",South Channel Community Centre,-43.2311,147.256
Montagu Bay,274,1088,25.2,Franklin,Pembroke,Clarence City,"10 Conara Rd, MONTAGU BAY 7018",Montagu Bay Primary School,-42.8646,147.353
Mornington,88,619,14.2,Franklin,Pembroke,Clarence City,"400 Cambridge Rd, MORNINGTON 7018",Citywide Baptist Church,-42.856351,147.401753
Mountain River,112,496,22.6,Franklin,Huon,Huon Valley,"263 Mountain River Rd, MOUNTAIN RIVER 7109",Mountain River Memorial Hall,-42.9614,147.109
Ranelagh,150,932,16.1,Franklin,Huon,Huon Valley,"40 Marguerite St, RANELAGH 7109",Ranelagh Memorial Hall,-43.0086,147.039
Risdon Vale,106,1163,9.1,Franklin,Rumney,Clarence City,"2 Heather Rd, RISDON VALE 7016",Risdon Vale Primary School,-42.8131,147.354
Rokeby,148,1335,11.1,Franklin,Rumney,Clarence City,"73 Burtonia St, ROKEBY 7019",Rokeby Primary School,-42.898953,147.433723
Sandfly (Franklin),177,691,25.6,Franklin,Huon,Kingborough,"811 Sandfly Rd, SANDFLY 7150",Sandfly Hall,-42.985,147.196
Sandford,401,1424,28.2,Franklin,Rumney,Clarence City,"949 South Arm Rd, SANDFORD 7020",Sandford Hall,-42.9402,147.495
Seven Mile Beach,173,820,21.1,Franklin,Rumney,Clarence City,"78 Surf Rd, SEVEN MILE BEACH 7170",Ramada Resort By Wyndham Seven Mile Beach,-42.8526,147.511
Snug,256,1028,24.9,Franklin,Huon,Kingborough,"2208 Channel Hwy, SNUG 7054",Snug Primary School,-43.0664,147.255
South Arm,178,679,26.2,Franklin,Rumney,Clarence City,"32 Harmony Lane, SOUTH ARM 7022",South Arm Primary School,-43.0264,147.421
Southport,24,139,17.3,Franklin,Huon,Huon Valley,"8606 Huon Hwy, SOUTHPORT 7109",Southport Community Centre,-43.418985,146.959638
Tranmere,291,1716,17.0,Franklin,Pembroke,Clarence City,"27 Tranmere Rd, HOWRAH 7018",Tranmere Hall,-42.8911,147.409
Warrane,243,1455,16.7,Franklin,Pembroke,Clarence City,"213 Cambridge Rd, WARRANE 7018",Warrane Primary School,-42.86115,147.38256
Woodbridge,156,377,41.4,Franklin,Huon,Kingborough,"3445 Channel Hwy, WOODBRIDGE 7162",Woodbridge Hall,-43.1601,147.239
Avoca,10,129,7.8,Lyons,McIntyre,Northern Midlands,"3 Falmouth St, AVOCA 7213",Avoca War Memorial Hall,-41.782499,147.719216
Bagdad,38,700,5.4,Lyons,Prosser,Southern Midlands,"46 School Rd, BAGDAD 7030",Bagdad Primary School,-42.6249,147.223
Bicheno,119,500,23.8,Lyons,Prosser,Glamorgan-Spring Bay,"78 Burgess St, BICHENO 7215",Bicheno War Memorial Hall,-41.8743,148.3003
Bothwell,12,287,4.2,Lyons,Derwent,Central Highlands,"19 Alexander St, BOTHWELL 7030",Bothwell Council Chambers,-42.3819,147.006
Bracknell,25,378,6.6,Lyons,McIntyre,Meander Valley,"Louisa St, BRACKNELL 7302",Bracknell War Memorial Hall,-41.6512,146.943
Bridgewater,91,1719,5.3,Lyons,Derwent,Brighton,"25 Green Point Rd, BRIDGEWATER 7030",Brighton Civic Centre,-42.739164,147.243512
Brighton,123,1898,6.5,Lyons,Derwent,Brighton,"27 Downie St, BRIGHTON 7030",Brighton Primary School,-42.6991,147.258
Broadmarsh,16,207,7.7,Lyons,Prosser,Southern Midlands,"1218 Elderslie Rd, BROADMARSH 7030",Broadmarsh Hall,-42.6567,147.126
Campania,41,535,7.7,Lyons,Prosser,Southern Midlands,"45 Reeve St, CAMPANIA 7026",Campania Hall,-42.667109,147.421053
Campbell Town,59,585,10.1,Lyons,Prosser,Northern Midlands,"75 High St, CAMPBELL TOWN 7210",Campbell Town Town Hall,-41.926995,147.494438
Carlton,41,167,24.6,Lyons,Prosser,Sorell,"41-55 Bally Park Rd, DODGES FERRY 7173",Blue Lagoon Christian Camp,-42.862267,147.614915
Carrick,38,617,6.2,Lyons,McIntyre,Meander Valley,"29 Meander Valley Rd, CARRICK 7291",Carrick Public Hall,-41.530917,147.011259
Chudleigh,32,262,12.2,Lyons,McIntyre,Meander Valley,"54 Sorell St, CHUDLEIGH 7304",Chudleigh Memorial Hall,-41.557239,146.481292
Claude Road,56,386,14.5,Lyons,Montgomery,Kentish,"787 Claude Rd, CLAUDE ROAD 7306",Claude Road Memorial Hall,-41.4343,146.275
Colebrook,12,165,7.3,Lyons,Prosser,Southern Midlands,"45 Richmond St, COLEBROOK 7027",Colebrook Memorial Hall,-42.533165,147.362604
Coles Bay,50,149,33.6,Lyons,Prosser,Glamorgan-Spring Bay,"60 Harold St, COLES BAY 7215",Coles Bay Community Hall,-42.1249,148.286
Copping,56,205,27.3,Lyons,Prosser,Sorell,"69 Allanby St, COPPING 7174",Copping Hall,-42.819982,147.802747
Cressy,33,621,5.3,Lyons,McIntyre,Northern Midlands,"67 Main St, CRESSY 7302",Cressy Community Hall,-41.685476,147.080745
Deloraine,210,1474,14.2,Lyons,McIntyre,Meander Valley,"East Barrack St, DELORAINE 7304",Deloraine High School Hall,-41.52917,146.66111
Dodges Ferry,317,1302,24.3,Lyons,Prosser,Sorell,"532 Old Forcett Rd, DODGES FERRY 7173",Dodges Ferry Community Recreation Centre,-42.8485,147.624
Dromedary,31,358,8.7,Lyons,Derwent,Brighton,"14 Millvale Rd, DROMEDARY 7030",Dromedary (Millvale) Community Hall,-42.7282,147.179
Dunalley,48,314,15.3,Lyons,Prosser,Sorell,"5 Franklin St, DUNALLEY 7177",Dunalley Community Hall,-42.887008,147.812638
Elizabeth Town,22,236,9.3,Lyons,McIntyre,Meander Valley,"6173 Bass Hwy, ELIZABETH TOWN 7304",Ashgrove Cheese Dairy Door,-41.429873,146.557049
Epping Forest,3,131,2.3,Lyons,McIntyre,Northern Midlands,"13517 Midland Hwy, EPPING FOREST 7211",Epping Hall,-41.758076,147.349062
Evandale,104,745,14.0,Lyons,McIntyre,Northern Midlands,"5-11 Barclay St, EVANDALE 7212",Evandale Primary School,-41.5672,147.247
Fingal,19,223,8.5,Lyons,McIntyre,Break O'Day,"20 Talbot St, FINGAL 7214",Fingal Neighbourhood House,-41.638599,147.970926
Forcett,55,380,14.5,Lyons,Prosser,Sorell,"699 Arthur Hwy, FORCETT 7173",Forcett Public Hall,-42.806209,147.631863
Gagebrook,43,767,5.6,Lyons,Derwent,Brighton,"2 Lamprill Circle, HERDSMANS COVE 7030",Herdsmans Cove Primary School,-42.748887,147.263868
Glenora,21,276,7.6,Lyons,Derwent,Derwent Valley,"620 Gordon River Rd, GLENORA 7140",Glenora District High School,-42.6969,146.889
Granton,45,666,6.8,Lyons,Derwent,Derwent Valley,"1 Lyell Hwy, GRANTON 7030",Granton Memorial Hall,-42.7498,147.224
Hadspen,79,1018,7.8,Lyons,Launceston,Meander Valley,"1A Clare St, HADSPEN 7290",Hadspen Memorial Centre,-41.504103,147.06161
Hagley,15,260,5.8,Lyons,McIntyre,Meander Valley,"2508 Meander Valley Rd, HAGLEY 7292",Hagley Farm Primary School,-41.526508,146.903129
Kempton,17,305,5.6,Lyons,Prosser,Southern Midlands,"89 Main St, KEMPTON 7030",Kempton Memorial Hall,-42.531821,147.200647
Lachlan,42,435,9.7,Lyons,Derwent,Derwent Valley,"511 Lachlan Rd, LACHLAN 7140",Lachlan Community Hall,-42.8304,147.043
Longford,119,1676,7.1,Lyons,McIntyre,Northern Midlands,"53 Wellington St, LONGFORD 7301",Longford War Memorial Hall,-41.59314,147.121997
Lower Barrington,50,558,9.0,Lyons,Montgomery,Kentish,"1027 Sheffield Rd, LOWER BARRINGTON 7306",Lower Barrington Public Hall,-41.291,146.291
Magra,28,512,5.5,Lyons,Derwent,Derwent Valley,"377 Back River Rd, MAGRA 7140",Magra CWA Building,-42.7559,147.054
Meander,43,233,18.5,Lyons,McIntyre,Meander Valley,"137 Main Rd, MEANDER 7304",Meander Primary School,-41.653057,146.611604
Midway Point,136,939,14.5,Lyons,Rumney,Sorell,"34 Raynors Rd, MIDWAY POINT 7171",Midway Point Community Hall,-42.7997,147.533
Miena,13,158,8.2,Lyons,Derwent,Central Highlands,"55-57 Cider Gum Rd, MIENA 7030",Miena Community Centre,-41.9937,146.708
Mole Creek,36,253,14.2,Lyons,McIntyre,Meander Valley,"4 Caveside Rd, MOLE CREEK 7304",Mole Creek Primary School,-41.557472,146.406501
Molesworth,42,312,13.5,Lyons,Derwent,Derwent Valley,"560 Molesworth Rd, MOLESWORTH 7140",Molesworth Community Hall,-42.80423,147.161093
New Norfolk,196,1724,11.4,Lyons,Derwent,Derwent Valley,"8 Pioneer Ave, NEW NORFOLK 7140",New Norfolk Primary School,-42.7793,147.064
New Norfolk North,69,1037,6.7,Lyons,Derwent,Derwent Valley,"211 Back River Rd, NEW NORFOLK 7140",Fairview Primary School,-42.774251,147.04917
Nubeena,114,577,19.8,Lyons,Prosser,Tasman,"1634 Main Rd, NUBEENA 7184",Nubeena CWA Hall,-43.098072,147.742474
Oatlands,37,586,6.3,Lyons,Prosser,Southern Midlands,"27 Church St, OATLANDS 7120",Oatlands District High School,-42.301506,147.371821
Old Beach,156,1420,11.0,Lyons,Rumney,Brighton,"86 Jetty Rd, OLD BEACH 7017",Old Beach Community Centre,-42.77427,147.26576
Orford,50,417,12.0,Lyons,Prosser,Glamorgan-Spring Bay,"35 Charles st, ORFORD 7190",Orford Primary School,-42.563502,147.87386
Ouse,4,281,1.4,Lyons,Derwent,Central Highlands,"6947 Lyell Hwy, OUSE 7140",Ouse Online Centre,-42.485288,146.711018
Perth,143,1654,8.6,Lyons,McIntyre,Northern Midlands,"173 Fairtlough St, PERTH 7300",Perth Community Centre,-41.5725,147.173
Pontville,46,650,7.1,Lyons,Prosser,Brighton,"371 Brighton Rd, PONTVILLE 7030",Pontville Old Council Chambers,-42.683895,147.265554
Primrose Sands,55,444,12.4,Lyons,Prosser,Sorell,"570 Primrose Sands Rd, PRIMROSE SANDS 7173",Primrose Sands Community Hall,-42.892403,147.671829
Prospect (Lyons),97,1148,8.4,Lyons,Rosevears,Launceston City,"282 Westbury Rd, PROSPECT 7250",St Patrick's College,-41.472,147.126
Prospect Vale,68,895,7.6,Lyons,Launceston,Meander Valley,"12 Casino Rise, PROSPECT VALE 7250",Residential Retirement Village Clubrooms,-41.4782,147.11
Railton,29,594,4.9,Lyons,McIntyre,Kentish,"94 Foster St, RAILTON 7305",Sheffield School - Railton Campus,-41.3526,146.414
Richmond,149,772,19.3,Lyons,Rumney,Clarence City,"Commercial Rd, RICHMOND 7025",Richmond Primary School,-42.739282,147.437988
Ross,20,267,7.5,Lyons,Prosser,Northern Midlands,"12 Bridge St, ROSS 7209",Ross Town Hall,-42.031409,147.492498
Scamander,62,304,20.4,Lyons,McIntyre,Break O'Day,"1 Old Coach Rd, SCAMANDER 7215",Scamander Sports Complex,-41.454218,148.26009
Sheffield,80,864,9.3,Lyons,Montgomery,Kentish,"12 Henry St, SHEFFIELD 7306",Sheffield School,-41.380689,146.330316
Sorell,170,1468,11.6,Lyons,Prosser,Sorell,"47 Cole St, SORELL 7172",Sorell Memorial Hall,-42.780612,147.560628
Sorell South,28,136,20.6,Lyons,Prosser,Sorell,"41 Gordon St, SORELL 7172",Sorell School,-42.7859,147.561
St Helens,103,660,15.6,Lyons,McIntyre,Break O'Day,"39 Cecilia St, ST HELENS 7216",St Helens Memorial Hall,-41.322629,148.249351
St Marys,73,418,17.5,Lyons,McIntyre,Break O'Day,"23 Main St, ST MARYS 7215",St Marys Community Hall,-41.57969,148.18531
Summerhill (Lyons),20,288,6.9,Lyons,Rosevears,Launceston City,"82-84 Stanley St, SUMMERHILL 7250",Summerdale Community Hall,-41.467659,147.130022
Swansea,67,705,9.5,Lyons,Prosser,Glamorgan-Spring Bay,"12 Franklin St, SWANSEA 7190",Swansea Town Hall,-42.1245,148.077
Taranna,82,331,24.8,Lyons,Prosser,Tasman,"Gourlay Rd, TARANNA 7180",Tasman Peninsula Community Centre,-43.037984,147.867522
Tea Tree,20,250,8.0,Lyons,Prosser,Brighton,"Briar Banks Rd, TEA TREE 7017",Tea Tree Community Hall,-42.689533,147.323592
Triabunna,35,530,6.6,Lyons,Prosser,Glamorgan-Spring Bay,"3 Vicary St, TRIABUNNA 7190",Triabunna Hall,-42.50822,147.910384
Tunnack,8,254,3.1,Lyons,Prosser,Southern Midlands,"2147 Tunnack Rd, TUNNACK 7120",Tunnack Public Hall,-42.456521,147.461779
Westbury,92,972,9.5,Lyons,McIntyre,Meander Valley,"26 Lyall St, WESTBURY 7303",Westbury Town Hall,-41.528106,146.83102
Westerway,42,314,13.4,Lyons,Derwent,Derwent Valley,"1619 Gordon River Rd, WESTERWAY 7140",Westerway Primary School,-42.6775,146.787
Wilmot,33,179,18.4,Lyons,Montgomery,Kentish,"61 Main St, WILMOT 7310",Wilmot Primary School,-41.386919,146.175659
