PollingPlaceNm,DivisionNm,GreensVotes,TotalVotes,GreensPercentage,PremisesNm,PremisesAddress,Latitude,Longitude,LegCo,LocalCouncil
Blessington Upper,Bass,11,84,13.1,North Esk Memorial Hall,"3132 Blessington Rd, BLESSINGTON 7212",-41.482430,147.504940,Windermere,Launceston City
Branxholm,Bass,21,184,11.4,Branxholm Community Hall,"Stoke St, BRANXHOLM 7261",-41.165606,147.736480,McIntyre,Dorset
Bridport,Bass,74,1085,6.8,Bridport Hall,"Main St, BRIDPORT 7262",-41.002600,147.395000,McIntyre,Dorset
Cosgrove Park,Bass,28,291,9.6,Cosgrove Park Bowls Club,"25 Waveney St, SOUTH LAUNCESTON 7249",-41.461716,147.149642,Launceston,Launceston City
Derby,Bass,16,101,15.8,Derby Town Hall,"1 Krushka St, DERBY 7264",-41.149330,147.802360,McIntyre,Dorset
Dilston,Bass,119,633,18.8,Dilston War Memorial Hall,"308 John Lees Dr, DILSTON 7252",-41.336800,147.082000,Windermere,Launceston City
East Launceston,Bass,241,954,25.3,East Launceston Primary School,"18 Mary St, EAST LAUNCESTON 7250",-41.441440,147.151372,Launceston,Launceston City
Elphin,Bass,129,809,15.9,Newstead College,"30 Cypress St, NEWSTEAD 7250",-41.433103,147.160799,Windermere,Launceston City
Five Ways,Bass,192,1306,14.7,St Mark's Church Hall,"6 Hobart Rd, SOUTH LAUNCESTON 7249",-41.459080,147.154020,Launceston,Launceston City
General Hospital,Bass,164,685,23.9,Launceston General Hospital,"Charles St, LAUNCESTON 7250",-41.446461,147.141338,Launceston,Launceston City
George Town,Bass,139,1667,8.3,George Town Memorial Hall,"29-67 Macquarie St, GEORGE TOWN 7253",-41.106907,146.821868,Windermere,George Town
George Town South,Bass,58,892,6.5,South George Town Primary School,"Franklin St, GEORGE TOWN 7253",-41.112400,146.833000,Windermere,George Town
Gladstone,Bass,17,152,11.2,Gladstone Hall,"1 Carr St, GLADSTONE 7264",-40.960100,148.008000,McIntyre,Dorset
Hadspen,Lyons,66,1088,6.1,Hadspen Uniting Church Centre,"47 Main St, HADSPEN 7290",-41.506400,147.064000,Launceston,Meander Valley
Hillwood,Bass,64,375,17.1,Hillwood Memorial Hall,"280 Hillwood Jetty Rd, HILLWOOD 7252",-41.236252,146.974945,Windermere,George Town
Inveresk,Bass,144,949,15.2,Invermay Primary School,"35-43 Mayne St, INVERMAY 7248",-41.421676,147.131233,Windermere,Launceston City
Invermay,Bass,203,1368,14.8,St Finn Barr's School,"247 Invermay Rd, INVERMAY 7248",-41.415700,147.132000,Windermere,Launceston City
Karoola,Bass,39,295,13.2,Karoola Hall,"1126 Pipers River Rd, KAROOLA 7267",-41.253900,147.148000,Windermere,Launceston City
Kings Meadows,Bass,186,2062,9.0,YMCA Centre,"8A Blaydon St, KINGS MEADOWS 7249",-41.467700,147.160000,Launceston,Launceston City
Lady Barron,Bass,13,119,10.9,Holloway Park Building,"Barr St, LADY BARRON 7255",-40.210500,148.243420,McIntyre,Flinders
Launceston,Bass,219,924,23.7,Pilgrim Hall,"36 Paterson St, LAUNCESTON 7250",-41.436600,147.137000,Launceston,Launceston City
Launceston Central,Bass,193,842,22.9,Launceston Central Polling Booth,"85a George St, LAUNCESTON 7250",-41.436001,147.140579,Launceston,Launceston City
Lebrina,Bass,31,205,15.1,Lebrina Memorial Hall,"905 Golconda Rd, LEBRINA 7254",-41.177300,147.228000,Windermere,Launceston City
Legana (Bass),Bass,214,1751,12.2,Legana Memorial Hall,"43 Fulton St, LEGANA 7277",-41.363200,147.047000,Rosevears,West Tamar
Lilydale,Bass,152,696,21.8,Lilydale Memorial Hall,"1949 Main Rd, LILYDALE 7268",-41.252300,147.216000,Windermere,Launceston City
Mowbray,Bass,90,942,9.6,Launceston Church Grammar School,"36 Button St, MOWBRAY 7248",-41.408140,147.131059,Windermere,Launceston City
Newnham,Bass,204,2673,7.6,Launceston North Uniting Church,"128-132 George Town Rd, NEWNHAM 7248",-41.387300,147.128000,Windermere,Launceston City
Newstead,Bass,248,1458,17.0,Newstead Baptist Church,"14 Wentworth St, NEWSTEAD 7250",-41.445986,147.160493,Launceston,Launceston City
Norwood,Bass,217,2277,9.5,Norwood Primary School,"103 Norwood Ave, NORWOOD 7250",-41.462100,147.174000,Launceston,Launceston City
Nunamara,Bass,39,228,17.1,Nunamara Memorial Hall,"39461 Tasman Hwy, NUNAMARA 7259",-41.394000,147.296000,Windermere,Launceston City
Pipers River,Bass,27,226,11.9,Pipers River Fire Station,"76 School Rd, PIPERS RIVER 7252",-41.100600,147.091000,Windermere,George Town
Prospect,Bass,135,1966,6.9,St Patrick's College,"282 Westbury Rd, PROSPECT 7250",-41.472000,147.126000,Rosevears,Launceston City
Prospect Vale,Lyons,96,1200,8.0,Residential Retirement Village Clubrooms,"12 Casino Rise, PROSPECT VALE 7250",-41.478200,147.110000,Launceston,Meander Valley
Ravenswood,Bass,128,1584,8.1,Ravenswood Primary School,"27 Prossers Forest Rd, RAVENSWOOD 7250",-41.415955,147.179654,Windermere,Launceston City
Ringarooma,Bass,27,333,8.1,Ringarooma Hall,"4 Charles St, RINGAROOMA 7263",-41.242410,147.735680,McIntyre,Dorset
Riverside,Bass,312,2275,13.7,Riverside High School,"354 West Tamar Hwy, RIVERSIDE 7250",-41.409360,147.098610,Rosevears,West Tamar
Riverside West,Bass,156,1253,12.5,Trevallyn Life Church,"34 Pitt Ave, TREVALLYN 7250",-41.430100,147.106000,Rosevears,West Tamar
Rocherlea,Bass,38,664,5.7,Brooks High School,"215 George Town Rd, ROCHERLEA 7248",-41.378531,147.121503,Windermere,Launceston City
Scottsdale,Bass,75,1773,4.2,St Barnabas' Church Hall,"55 King St, SCOTTSDALE 7260",-41.162550,147.514910,McIntyre,Dorset
South Launceston,Bass,72,414,17.4,Launceston RSL,"313-315 Wellington St, LAUNCESTON 7250",-41.452960,147.143930,Rosevears,Launceston City
St Leonards,Bass,81,1154,7.0,St Leonards Primary School,"330-342 St Leonards Rd, ST LEONARDS 7250",-41.459700,147.200000,Windermere,Launceston City
Summerhill,Bass,219,2967,7.4,Summerdale Community Centre,"82-84 Stanley St, SUMMERHILL 7250",-41.468300,147.129710,Rosevears,Launceston City
Targa,Bass,12,84,14.3,Myrtle Park Hall,"38250 Tasman Hwy, TARGA 7259",-41.310876,147.364104,Windermere,Launceston City
Trevallyn,Bass,477,1658,28.8,Trevallyn Primary School,"55 Gorge Rd, TREVALLYN 7250",-41.438100,147.115000,Rosevears,West Tamar
Waverley,Bass,61,795,7.7,Waverley School Hall,"6 Naroo St, WAVERLEY 7250",-41.432100,147.190000,Windermere,Launceston City
West Launceston,Bass,455,1655,27.5,West Launceston Primary School,"24-38 Basin Rd, WEST LAUNCESTON 7250",-41.449200,147.129000,Rosevears,Launceston City
Weymouth,Bass,22,162,13.6,Weymouth Hall,"18 Major St, WEYMOUTH 7252",-41.015300,147.154000,Windermere,George Town
Whitemark,Bass,61,322,18.9,Lions Club,"1 James St, WHITEMARK 7255",-40.121400,148.019000,McIntyre,Flinders
Windmill Hill,Bass,170,758,22.4,Harry Abbott Scout Centre,"1 St Georges Sq, LAUNCESTON 7250",-41.438934,147.148398,Launceston,Launceston City
Winnaleah,Bass,11,189,5.8,Winnaleah Memorial Hall,"20 Main St, WINNALEAH 7265",-41.097900,147.824000,McIntyre,Dorset
Youngtown,Bass,118,1473,8.0,Youngtown Primary School,"Victoria St, YOUNGTOWN 7249",-41.482300,147.164000,Launceston,Launceston City
