PollingPlaceNm,DivisionNm,GreensVotes_2018,TotalVotes_2018,GreensPercentage_2018,SwingPercentage,PremisesNm_2018,PremisesAddress_2018,Latitude,Longitude,LegCo,LocalCouncil
Blessington Upper,Bass,6,57,10.5,-2.6,North Esk Memorial Hall,"3132 Blessington Rd, BLESSINGTON 7212",-41.48243,147.50494,Windermere,Launceston City
Branxholm,Bass,13,180,7.2,-4.2,Branxholm Community Hall,"Stoke St, BRANXHOLM 7261",-41.165606,147.73648,McIntyre,Dorset
Bridport,Bass,55,1077,5.1,-1.7,Bridport Hall,"Main St, BRIDPORT 7262",-41.0026,147.395,McIntyre,Dorset
Derby,Bass,28,105,26.7,10.9,Derby Town Hall,"1 Krushka St, DERBY 7264",-41.14933,147.80236,McIntyre,Dorset
Dilston,Bass,96,675,14.2,-4.6,Dilston War Memorial Hall,"308 John Lees Dr, DILSTON 7252",-41.3368,147.082,Windermere,Launceston City
East Launceston,Bass,219,1242,17.6,-7.7,East Launceston Primary School,"18 Mary St, EAST LAUNCESTON 7250",-41.44144,147.151372,Launceston,Launceston City
Five Ways,Bass,145,1130,12.8,-1.9,St Mark's Church Hall,"6 Hobart Rd, SOUTH LAUNCESTON 7249",-41.45908,147.15402,Launceston,Launceston City
George Town,Bass,102,1705,6.0,-2.3,George Town Memorial Hall,"29-67 Macquarie St, GEORGE TOWN 7253",-41.106907,146.821868,Windermere,George Town
George Town South,Bass,33,896,3.7,-2.8,South George Town Primary School,"Franklin St, GEORGE TOWN 7253",-41.1124,146.833,Windermere,George Town
Gladstone,Bass,12,174,6.9,-4.3,Gladstone Hall,"1 Carr St, GLADSTONE 7264",-40.9601,148.008,McIntyre,Dorset
Hadspen,Lyons,55,1203,4.6,-1.5,Hadspen Uniting Church Centre,"47 Main St, HADSPEN 7290",-41.5064,147.064,Launceston,Meander Valley
Hillwood,Bass,48,458,10.5,-6.6,Hillwood Memorial Hall,"280 Hillwood Jetty Rd, HILLWOOD 7252",-41.236252,146.974945,Windermere,George Town
Inveresk,Bass,154,1155,13.3,-1.9,Invermay Primary School,"35-43 Mayne St, INVERMAY 7248",-41.421676,147.131233,Windermere,Launceston City
Invermay,Bass,133,1165,11.4,-3.4,St Finn Barr's School,"247 Invermay Rd, INVERMAY 7248",-41.4157,147.132,Windermere,Launceston City
Karoola,Bass,29,333,8.7,-4.5,Karoola Hall,"1126 Pipers River Rd, KAROOLA 7267",-41.2539,147.148,Windermere,Launceston City
Kings Meadows,Bass,140,2119,6.6,-2.4,YMCA Centre,"8A Blaydon St, KINGS MEADOWS 7249",-41.4677,147.16,Launceston,Launceston City
Lady Barron,Bass,10,125,8.0,-2.9,Holloway Park Building,"Barr St, LADY BARRON 7255",-40.2105,148.24342,McIntyre,Flinders
Launceston,Bass,236,1084,21.8,-1.9,Pilgrim Hall,"36 Paterson St, LAUNCESTON 7250",-41.4366,147.137,Launceston,Launceston City
Launceston Central,Bass,205,979,20.9,-2.0,Chalmers Hall,"163 St John St, LAUNCESTON 7250",-41.441,147.14205,Launceston,Launceston City
Lebrina,Bass,20,210,9.5,-5.6,Lebrina Memorial Hall,"905 Golconda Rd, LEBRINA 7254",-41.1773,147.228,Windermere,Launceston City
Legana (Bass),Bass,146,1954,7.5,-4.7,Legana Memorial Hall,"43 Fulton St, LEGANA 7277",-41.3632,147.047,Rosevears,West Tamar
Lilydale,Bass,95,674,14.1,-7.7,Lilydale Memorial Hall,"1949 Main Rd, LILYDALE 7268",-41.2523,147.216,Windermere,Launceston City
Mowbray,Bass,91,889,10.2,0.6,Launceston Church Grammar School,"36 Button St, MOWBRAY 7248",-41.40814,147.131059,Windermere,Launceston City
Newnham,Bass,140,2672,5.2,-2.4,Launceston North Uniting Church,"128-132 George Town Rd, NEWNHAM 7248",-41.3873,147.128,Windermere,Launceston City
Newstead,Bass,277,2167,12.8,-4.2,Police Citizens & Youth Club,"148 Abbott St, NEWSTEAD 7250",-41.4472,147.157,Launceston,Launceston City
Norwood,Bass,169,2306,7.3,-2.2,Norwood Primary School,"103 Norwood Ave, NORWOOD 7250",-41.4621,147.174,Launceston,Launceston City
Nunamara,Bass,28,296,9.5,-7.6,Nunamara Memorial Hall,"39461 Tasman Hwy, NUNAMARA 7259",-41.394,147.296,Windermere,Launceston City
Pipers River,Bass,19,210,9.0,-2.9,Pipers River Fire Station,"76 School Rd, PIPERS RIVER 7252",-41.1006,147.091,Windermere,George Town
Prospect,Bass,88,2048,4.3,-2.6,St Patrick's College,"282 Westbury Rd, PROSPECT 7250",-41.472,147.126,Rosevears,Launceston City
Prospect Vale,Lyons,60,1214,4.9,-3.1,Residential Retirement Village Clubrooms,"12 Casino Rise, PROSPECT VALE 7250",-41.4782,147.11,Launceston,Meander Valley
Ravenswood,Bass,76,1564,4.9,-3.2,Ravenswood Primary School,"27 Prossers Forest Rd, RAVENSWOOD 7250",-41.415955,147.179654,Windermere,Launceston City
Ringarooma,Bass,10,301,3.3,-4.8,Ringarooma Hall,"4 Charles St, RINGAROOMA 7263",-41.24241,147.73568,McIntyre,Dorset
Riverside,Bass,204,2215,9.2,-4.5,Riverside High School,"354 West Tamar Hwy, RIVERSIDE 7250",-41.40936,147.09861,Rosevears,West Tamar
Riverside West,Bass,101,1419,7.1,-5.4,Trevallyn Life Church,"34 Pitt Ave, TREVALLYN 7250",-41.4301,147.106,Rosevears,West Tamar
Rocherlea,Bass,20,701,2.9,-2.8,Brooks High School,"215 George Town Rd, ROCHERLEA 7248",-41.378531,147.121503,Windermere,Launceston City
Scottsdale,Bass,39,1187,3.3,-0.9,St Barnabas' Church Hall,"55 King St, SCOTTSDALE 7260",-41.16255,147.51491,McIntyre,Dorset
South Launceston,Bass,107,704,15.2,-2.2,Launceston RSL,"313-315 Wellington St, LAUNCESTON 7250",-41.45296,147.14393,Rosevears,Launceston City
St Leonards,Bass,63,1224,5.1,-1.9,St Leonards Primary School,"330-342 St Leonards Rd, ST LEONARDS 7250",-41.4597,147.2,Windermere,Launceston City
Summerhill,Bass,189,2976,6.4,-1.0,Summerdale Community Centre,"82-84 Stanley St, SUMMERHILL 7250",-41.4683,147.12971,Rosevears,Launceston City
Trevallyn,Bass,385,1592,24.2,-4.6,Trevallyn Primary School,"55 Gorge Rd, TREVALLYN 7250",-41.4381,147.115,Rosevears,West Tamar
Waverley,Bass,36,838,4.3,-3.4,Waverley School Hall,"6 Naroo St, WAVERLEY 7250",-41.4321,147.19,Windermere,Launceston City
West Launceston,Bass,365,1663,21.9,-5.6,West Launceston Primary School,"24-38 Basin Rd, WEST LAUNCESTON 7250",-41.4492,147.129,Rosevears,Launceston City
Weymouth,Bass,9,166,5.4,-8.2,Weymouth Hall,"18 Major St, WEYMOUTH 7252",-41.0153,147.154,Windermere,George Town
Whitemark,Bass,54,335,16.1,-2.8,Lions Club,"1 James St, WHITEMARK 7255",-40.1214,148.019,McIntyre,Flinders
Winnaleah,Bass,11,181,6.1,0.3,Winnaleah Memorial Hall,"20 Main St, WINNALEAH 7265",-41.0979,147.824,McIntyre,Dorset
Youngtown,Bass,61,1491,4.1,-3.9,Youngtown Primary School,"Victoria St, YOUNGTOWN 7249",-41.4823,147.164,Launceston,Launceston City
Abbotsham,Braddon,9,164,5.5,-0.5,Abbotsham Hall,"590 Castra Rd, ABBOTSHAM 7315",-41.2135,146.174,Montgomery,Central Coast
Acton,Braddon,30,1352,2.2,-1.8,Burnie Child and Family Centre,"36 Thorne St, ACTON 7320",-41.07264,145.89229,Montgomery,Burnie City
Boat Harbour,Braddon,32,473,6.8,-9.0,Boat Harbour Primary School,"17386 Bass Hwy, BOAT HARBOUR 7321",-40.9452,145.636,Murchison,Waratah-Wynyard
Burnie,Braddon,67,1388,4.8,-4.6,Burnie City Council Offices,"80 Wilson St, BURNIE 7320",-41.0532,145.906,Murchison,Burnie City
Calder,Braddon,2,143,1.4,-9.8,Calder Hall,"1320 Calder Rd, CALDER 7325",-41.0685,145.631,Murchison,Waratah-Wynyard
Cooee,Braddon,31,913,3.4,-3.5,Cooee Primary School,"30 Fidler St, COOEE 7320",-41.04076,145.86801,Murchison,Burnie City
Currie,Braddon,76,696,10.9,2.2,Currie Town Hall,"10 George St, CURRIE 7256",-39.9298,143.855,Murchison,King Island
Devonport Central,Braddon,75,1815,4.1,-4.4,St Johns Parish Hall,"Fenton St, DEVONPORT 7310",-41.178994,146.358274,Mersey,Devonport City
Devonport North West,Braddon,84,2431,3.5,-4.1,Nixon Street Primary School,"60 Nixon St, DEVONPORT 7310",-41.1728,146.337,Mersey,Devonport City
Devonport South,Braddon,41,1342,3.1,-2.1,Reece High School,"41-43 Middle Rd, DEVONPORT 7310",-41.1893,146.349,Mersey,Devonport City
Devonport West,Braddon,22,1178,1.9,-2.2,TasTafe,"20-36 Valley Rd, DEVONPORT 7310",-41.1864,146.345,Mersey,Devonport City
Don,Braddon,45,1202,3.7,-3.8,Don Memorial Hall,"17 Forth Rd, DON 7310",-41.1827,146.318,Mersey,Devonport City
East Devonport,Braddon,50,2033,2.5,-2.4,East Devonport Primary School,"19-21 Thomas St, EAST DEVONPORT 7310",-41.1779,146.372,Mersey,Devonport City
Edith Creek,Braddon,2,157,1.3,-3.7,Edith Creek Primary School,"1282 Trowutta Rd, EDITH CREEK 7330",-40.9705,145.092,Murchison,Circular Head
Elliott,Braddon,11,386,2.8,-3.9,Elliott Community Centre,"829 Murchison Hwy, ELLIOTT 7325",-41.0922,145.782,Murchison,Waratah-Wynyard
Forest,Braddon,3,383,0.8,-1.9,Forest Primary School,"422 Mengha Rd, FOREST 7330",-40.8486,145.248,Murchison,Circular Head
Forth,Braddon,44,682,6.5,-7.7,Forth Primary School,"45 Wilmot Rd, FORTH 7310",-41.192921,146.248975,Montgomery,Central Coast
Gawler,Braddon,14,466,3.0,-1.6,Gawler Hall,"15 Top Gawler Rd, GAWLER 7315",-41.1852,146.16,Montgomery,Central Coast
Grassy,Braddon,14,120,11.7,2.9,Grassy Club,"10 Grassy Rd, GRASSY 7256",-40.0484,144.058,Murchison,King Island
Havenview,Braddon,13,440,3.0,-0.1,Havenview Primary School,"15 Marriott St, HAVENVIEW 7320",-41.0836,145.911,Montgomery,Burnie City
Heybridge,Braddon,9,266,3.4,-2.8,Blythe Heads Hall,"Sice Ave, HEYBRIDGE 7316",-41.0751,145.986,Montgomery,Central Coast
Highclere,Braddon,3,135,2.2,-2.0,Highclere Community Centre,"1558 Ridgley Hwy, HIGHCLERE 7321",-41.1904,145.806,Montgomery,Burnie City
Irishtown,Braddon,1,326,0.3,-1.1,Irishtown Lodge Arthur Temple,"604 Irishtown Rd, IRISHTOWN 7330",-40.9133,145.145,Murchison,Circular Head
Latrobe,Braddon,59,2295,2.6,-2.8,Latrobe Primary School,"23 Lewis St, LATROBE 7307",-41.239619,146.416013,Mersey,Latrobe
Marrawah,Braddon,6,219,2.7,-5.4,Marrawah Memorial Hall,"844 Comeback Rd, MARRAWAH 7330",-40.9229,144.697,Murchison,Circular Head
Melrose,Braddon,12,227,5.3,-8.8,Melrose Memorial Hall,"673 Melrose Rd, MELROSE 7310",-41.2417,146.289,Mersey,Devonport City
Montello,Braddon,30,1128,2.7,-2.6,Montello Primary School,"83 Bird St, MONTELLO 7320",-41.0605,145.898,Murchison,Burnie City
Moorleah,Braddon,9,183,4.9,-13.4,Moorleah Community Centre,"720 Preolenna Rd, MOORLEAH 7321",-40.981,145.616,Murchison,Waratah-Wynyard
Natone,Braddon,9,134,6.7,-1.8,Natone Primary School,"100 Upper Natone Rd, NATONE 7321",-41.1701,145.922,Montgomery,Burnie City
North Motton,Braddon,17,291,5.8,-7.9,North Motton Hall,"578 Preston Rd, NORTH MOTTON 7315",-41.20637,146.10937,Montgomery,Central Coast
Penguin,Braddon,105,1982,5.3,-5.9,Penguin Uniting Church Hall,"50 Main Rd, PENGUIN 7316",-41.112,146.071,Montgomery,Central Coast
Preston,Braddon,9,116,7.8,-7.8,Preston Community Centre,"1833 Preston Rd, PRESTON 7315",-41.2972,146.062,Montgomery,Central Coast
Queenstown,Braddon,24,729,3.3,-2.2,West Coast Community Services Hub,"Hunter St, QUEENSTOWN 7467",-42.078959,145.555963,Murchison,West Coast
Riana,Braddon,10,197,5.1,-3.2,Riana Community Centre,"1221 Pine Rd, RIANA 7316",-41.2015,145.999,Montgomery,Central Coast
Ridgley,Braddon,15,615,2.4,-0.9,Ridgley Primary School,"904 Ridgley Hwy, RIDGLEY 7321",-41.1398,145.837,Montgomery,Burnie City
Rocky Cape,Braddon,7,401,1.7,-4.1,Rocky Cape Public Hall,"19074 Bass Hwy, ROCKY CAPE 7321",-40.905,145.487,Murchison,Circular Head
Romaine,Braddon,20,1288,1.6,-1.7,Romaine Park Primary School,"cnr Roslyn Ave & Mount St, ROMAINE 7320",-41.076634,145.899584,Montgomery,Burnie City
Rosebery,Braddon,4,298,1.3,-2.1,Rosebery Neighbourhood Centre,"8 Agnes St, ROSEBERY 7470",-41.779832,145.539126,Murchison,West Coast
Shorewell Park,Braddon,34,1079,3.2,-3.4,Hellyer College,"41-43 Mooreville Rd, SHOREWELL PARK 7320",-41.06128,145.88153,Murchison,Burnie City
Sisters Beach,Braddon,15,224,6.7,-7.1,Sisters Beach Fire Station,"34 Honeysuckle Ave, SISTERS BEACH 7321",-40.9181,145.565,Murchison,Waratah-Wynyard
Sisters Creek,Braddon,15,132,11.4,-10.2,Myalla Community Centre,"29 Myalla Rd, Sisters Creek 7325",-40.964904,145.572884,Murchison,Waratah-Wynyard
Smithton,Braddon,19,1542,1.2,-0.9,Smithton Primary School,"27-43 Grant St, SMITHTON 7330",-40.849445,145.116059,Murchison,Circular Head
Somerset,Braddon,35,1591,2.2,-3.5,Somerset Primary School,"30A Beaufort St, SOMERSET 7322",-41.038182,145.819344,Murchison,Waratah-Wynyard
South Riana,Braddon,8,186,4.3,-6.2,South Riana Hall,"776 South Riana Rd, SOUTH RIANA 7316",-41.2345,145.977,Montgomery,Central Coast
Sprent,Braddon,10,192,5.2,-3.1,Sprent Primary School,"1245 Castra Rd, SPRENT 7315",-41.2627,146.16,Montgomery,Central Coast
Spreyton,Braddon,44,1540,2.9,-2.4,Spreyton Primary School,"1 Mersey Main Rd, SPREYTON 7310",-41.21207,146.34434,Mersey,Devonport City
Stanley,Braddon,22,395,5.6,-4.9,Stanley Primary School,"28 Pearse St, STANLEY 7331",-40.7603,145.291,Murchison,Circular Head
Stowport,Braddon,6,268,2.2,-4.9,Stowport Public Hall,"580 Stowport Rd, STOWPORT 7321",-41.1124,145.929,Montgomery,Burnie City
Strahan,Braddon,12,397,3.0,-2.2,Strahan Primary School,"2 Bay St, STRAHAN 7468",-42.154043,145.320404,Murchison,West Coast
Sulphur Creek,Braddon,23,705,3.3,-5.6,Sulphur Creek Hall,"310 Preservation Dr, SULPHUR CREEK 7316",-41.0935,146.026,Montgomery,Central Coast
Tullah,Braddon,5,117,4.3,-0.3,Tullah Community Hall,"24 Farrell St, TULLAH 7321",-41.737568,145.616076,Murchison,West Coast
Turners Beach,Braddon,31,896,3.5,-5.5,Turners Beach Hall,"Henry St, TURNERS BEACH 7315",-41.1589,146.244,Montgomery,Central Coast
Ulverstone Central,Braddon,44,1095,4.0,-2.7,Ulverstone Senior Citizens Club,"16 King Edward St, ULVERSTONE 7315",-41.15507,146.171931,Montgomery,Central Coast
Ulverstone East,Braddon,23,948,2.4,-5.4,East Ulverstone Primary School,"18 Crawford St, ULVERSTONE 7315",-41.1546,146.192,Montgomery,Central Coast
Ulverstone South,Braddon,84,2328,3.6,-2.8,Ulverstone High School,"38 Leven St, ULVERSTONE 7315",-41.16201,146.17091,Montgomery,Central Coast
Waratah,Braddon,3,142,2.1,-1.9,Waratah Municipal Chambers,"12-14 Smith St, WARATAH 7321",-41.44422,145.5313,Murchison,Waratah-Wynyard
West Ulverstone,Braddon,49,1616,3.0,-2.7,West Ulverstone Primary School,"34 Maud St, WEST ULVERSTONE 7315",-41.1482,146.16,Montgomery,Central Coast
Wivenhoe,Braddon,14,525,2.7,-4.9,Leighland Christian School (Wivenhoe Campus),"Stowport Rd, WIVENHOE 7320",-41.06904,145.93609,Montgomery,Burnie City
Wynyard Central,Braddon,70,2151,3.3,-5.5,Wynyard Senior Citizens Club Rooms,"28 Jackson St, WYNYARD 7325",-40.9909,145.729,Murchison,Waratah-Wynyard
Wynyard West,Braddon,43,1314,3.3,-5.3,Wynyard High School,"30 Church St, WYNYARD 7325",-40.9867,145.717,Murchison,Waratah-Wynyard
Yolla,Braddon,8,358,2.2,-6.4,Yolla District High School,"School Lane, YOLLA 7325",-41.1237,145.719,Murchison,Waratah-Wynyard
Zeehan,Braddon,11,352,3.1,-0.3,Zeehan Primary School,"7 Belstead St, ZEEHAN 7469",-41.888,145.34,Murchison,West Coast
Austins Ferry,Clark,68,1519,4.5,-1.1,St Virgil's College,"195 Main Rd, AUSTINS FERRY 7011",-42.774487,147.251105,Derwent,Glenorchy City
Battery Point,Clark,197,833,23.6,-9.8,10th Hobart Scout Hall,"Marieville Esp, SANDY BAY 7004",-42.896023,147.333912,Hobart,Hobart City
Battery Point West,Clark,202,808,25.0,-7.5,Albuera Street Primary School,"10A Albuera St, BATTERY POINT 7004",-42.8912,147.326,Hobart,Hobart City
Cascades,Clark,494,1148,43.0,-7.4,Badminton Association Centre,"101 Cascade Rd, SOUTH HOBART 7004",-42.895023,147.299845,Hobart,Hobart City
Chigwell,Clark,59,1184,5.0,-2.2,Chigwell Barn,"10 Bucaan St, CHIGWELL 7011",-42.811194,147.241655,Derwent,Glenorchy City
Claremont,Clark,143,2559,5.6,-1.9,Claremont Girl Guides Hall,"3 Boxhill Rd, CLAREMONT 7011",-42.792307,147.255999,Derwent,Glenorchy City
Collinsvale,Clark,44,347,12.7,-6.3,Collinsvale Primary School,"508 Collinsvale Rd, COLLINSVALE 7012",-42.8367,147.198,Elwick,Glenorchy City
Dynnyrne,Clark,279,1057,26.4,-6.9,Princes Street Primary School,"Randall St, SANDY BAY 7005",-42.8984,147.319,Nelson,Hobart City
Fern Tree,Clark,260,541,48.1,-8.1,Fern Tree Fire Station,"7 Summerleas Rd, FERN TREE 7054",-42.923248,147.260441,Hobart,Hobart City
Glenorchy,Clark,200,2769,7.2,-1.4,Glenorchy Primary School,"Kensington St, GLENORCHY 7010",-42.832391,147.266343,Elwick,Glenorchy City
Glenorchy Central,Clark,124,1351,9.2,1.1,St Matthews Church,"Cnr Tolosa St and Main Rd, GLENORCHY 7010",-42.833066,147.274292,Elwick,Glenorchy City
Goodwood,Clark,29,510,5.7,-1.4,Goodwood Primary School,"Elmsleigh Rd, MOONAH 7009",-42.831689,147.293744,Elwick,Glenorchy City
Hobart City,Clark,267,825,32.4,-1.3,Hobart Voting Centre,"144 Macquarie St, HOBART 7000",-42.885224,147.327458,Hobart,Hobart City
Kingston (Clark),Clark,112,564,19.9,-3.9,Kingborough Council,"15 Channel Hwy, KINGSTON 7050",-42.975418,147.31165,Nelson,Kingborough
Lenah Valley,Clark,474,2561,18.5,-1.3,Lenah Valley Primary School,"11 Creek Rd, LENAH VALLEY 7008",-42.8612,147.29,Elwick,Hobart City
Lower Sandy Bay,Clark,203,1427,14.2,-4.0,Sandy Bay Infant School,"568 Sandy Bay Rd, SANDY BAY 7005",-42.909594,147.34935,Nelson,Hobart City
Lutana,Clark,130,945,13.8,0.3,Southern ITF Taekwon-Do,"12 Ashbolt Cres, LUTANA 7009",-42.843166,147.309154,Elwick,Glenorchy City
Merton,Clark,118,1678,7.0,-1.4,Tolosa Hall,"148 Tolosa St, GLENORCHY 7010",-42.8455,147.265,Elwick,Glenorchy City
Moonah,Clark,210,1542,13.6,-0.8,Salvation Army Community Centre,"73 Hopkins St, MOONAH 7009",-42.845951,147.296066,Elwick,Glenorchy City
Moonah East,Clark,187,1276,14.7,-2.5,Bowen Road Primary School,"35 Bowen Rd, MOONAH 7009",-42.8474,147.308,Elwick,Glenorchy City
Moonah North,Clark,187,1560,12.0,-4.2,Moonah Primary School,"40 Derwent Park Rd, MOONAH 7009",-42.838,147.296,Elwick,Glenorchy City
Mount Nelson,Clark,313,1329,23.6,-6.1,Mt Nelson Primary School,"388 Nelson Rd, MOUNT NELSON 7007",-42.9136,147.323,Nelson,Hobart City
Mount Stuart,Clark,234,949,24.7,-1.5,Mt Stuart Primary School,"106 Gillon Cres, MOUNT STUART 7000",-42.875,147.299,Hobart,Hobart City
New Town,Clark,252,1165,21.6,-6.6,The Friends School,"393 Argyle St, NORTH HOBART 7000",-42.867,147.316,Hobart,Hobart City
New Town West,Clark,344,1933,17.8,-7.3,Sacred Heart College,"67 Clare St, NEW TOWN 7008",-42.8615,147.304,Hobart,Hobart City
North Hobart Central,Clark,427,1561,27.4,-6.4,Hobart North Uniting Church,"2 Swan St, NORTH HOBART 7000",-42.8728,147.314,Hobart,Hobart City
Roseneath,Clark,35,681,5.1,-0.8,Austins Ferry Primary School,"13 Brodie St, CLAREMONT 7011",-42.78618,147.240549,Derwent,Glenorchy City
Rosetta,Clark,41,478,8.6,-2.0,Montrose Bay High School,"865 Brooker Ave, ROSETTA 7010",-42.8206,147.267567,Elwick,Glenorchy City
Sandfly (Clark),Clark,61,267,22.8,-3.3,Sandfly Hall,"811 Sandfly Rd, SANDFLY 7150",-42.985,147.196,Huon,Kingborough
Sandy Bay,Clark,236,1373,17.2,-7.3,Wellspring Anglican Church Hall,"43 Grosvenor St, SANDY BAY 7005",-42.8992,147.327,Nelson,Hobart City
Sandy Bay Beach,Clark,82,644,12.7,-7.0,Harold Gregg Centre,"1 Southerwood Dr, SANDY BAY 7005",-42.9138,147.355,Nelson,Hobart City
South Hobart,Clark,446,1310,34.0,-9.6,St Francis Xavier's Church Hall,"34 Anglesea St, SOUTH HOBART 7004",-42.8949,147.312,Hobart,Hobart City
Taroona,Clark,470,1459,32.2,-7.6,Taroona Primary School,"104 Channel Hwy, TAROONA 7053",-42.943302,147.352737,Nelson,Hobart City
Waimea Heights,Clark,150,898,16.7,-1.2,Waimea Heights Primary School,"12 Balfour Ct, SANDY BAY 7005",-42.909011,147.33674,Nelson,Hobart City
West Hobart,Clark,256,904,28.3,-3.0,St Peter's Hall,"Cnr Brisbane/Harrington Sts, HOBART 7000",-42.881458,147.320654,Hobart,Hobart City
West Hobart Central,Clark,506,1916,26.4,-12.2,Lansdowne Crescent Primary School,"15 Gourlay St, WEST HOBART 7000",-42.8819,147.309,Hobart,Hobart City
West Hobart South,Clark,367,1067,34.4,-11.4,Goulburn Street Primary School,"Forest Rd, WEST HOBART 7000",-42.8878,147.317,Hobart,Hobart City
Windermere,Clark,50,978,5.1,-2.1,Windermere Primary School,"2 Cadbury Rd, CLAREMONT 7011",-42.80013,147.259102,Derwent,Glenorchy City
Adventure Bay,Franklin,31,180,17.2,-2.8,Adventure Bay Hall,"Adventure Bay Rd, ADVENTURE BAY 7150",-43.3458,147.321,Huon,Kingborough
Alonnah,Franklin,56,278,20.1,-8.7,Bruny Island District School,"15 School Rd, ALONNAH 7150",-43.31807,147.244455,Huon,Kingborough
Barnes Bay,Franklin,16,76,21.1,-7.4,Barnes Bay CWA Rooms,"678 Bruny Island Main Rd, NORTH BRUNY 7150",-43.112603,147.373414,Huon,Kingborough
Bellerive,Franklin,294,1794,16.4,-1.3,Clarence Police & Community Youth Club Inc,"10 Scott St, BELLERIVE 7018",-42.87606,147.370955,Pembroke,Clarence City
Blackmans Bay,Franklin,478,2705,17.7,-2.1,Blackmans Bay Primary School,"177 Roslyn Ave, BLACKMANS BAY 7052",-42.996938,147.321219,Nelson,Kingborough
Cambridge,Franklin,115,1483,7.8,-7.3,Cambridge Primary School,"976 Cambridge Rd, CAMBRIDGE 7170",-42.8362,147.442,Rumney,Clarence City
Clarence,Franklin,255,1897,13.4,-1.3,Clarence High School,"25 Wentworth St, BELLERIVE 7018",-42.8784,147.389,Pembroke,Clarence City
Clarendon Vale,Franklin,35,787,4.4,0.4,Clarendon Vale Neighbourhood Centre,"65 Mockridge Rd, CLARENDON VALE 7019",-42.887539,147.443086,Rumney,Clarence City
Cradoc,Franklin,114,479,23.8,0.4,Cradoc Park,"8243 Channel Hwy, CRADOC 7109",-43.1064,147.034,Huon,Huon Valley
Cygnet,Franklin,652,1820,35.8,4.0,Carmel Hall,"25 Mary St, CYGNET 7112",-43.162624,147.076341,Huon,Huon Valley
Dover,Franklin,89,633,14.1,2.0,Dover District High School,"6940 Huon Hwy, DOVER 7117",-43.3105,147.013,Huon,Huon Valley
Franklin,Franklin,170,644,26.4,1.7,Franklin Primary School,"10 New Rd, FRANKLIN 7113",-43.085654,147.012018,Huon,Huon Valley
Geeveston,Franklin,138,1075,12.8,0.1,Geeveston Primary School,"63 Arve Rd, GEEVESTON 7116",-43.1625,146.922,Huon,Huon Valley
Geilston Bay,Franklin,183,1972,9.3,-2.3,Lindisfarne North Primary School,"271 East Derwent Hwy, GEILSTON BAY 7015",-42.8383,147.349,Pembroke,Clarence City
Glen Huon,Franklin,46,315,14.6,-0.8,Glen Huon Primary School,"801 Glen Huon Rd, GLEN HUON 7109",-43.0278,146.962,Huon,Huon Valley
Howden,Franklin,107,438,24.4,-0.1,Howden Fire Station,"392 Howden Rd, HOWDEN 7054",-43.019128,147.291545,Huon,Kingborough
Howrah,Franklin,227,2460,9.2,-1.4,"Howrah Scout Hall, Howrah Primary School","7 Howrah Rd, HOWRAH 7018",-42.8819,147.404,Pembroke,Clarence City
Huonville,Franklin,203,1489,13.6,-0.3,Huonville Primary School,"74 Wilmot Rd, HUONVILLE 7109",-43.02424,147.044783,Huon,Huon Valley
Judbury,Franklin,48,252,19.0,-3.1,Judbury Hall,"1273 Glen Huon Rd, JUDBURY 7109",-42.9982,146.9283,Huon,Huon Valley
Kettering,Franklin,156,544,28.7,-4.1,Kettering Community Centre,"2963 Channel Hwy, KETTERING 7155",-43.1257,147.247,Huon,Kingborough
Kingston (Franklin),Franklin,363,1987,18.3,0.7,Kingborough Council,"15 Channel Hwy, KINGSTON 7050",-42.975418,147.31165,Nelson,Kingborough
Kingston Beach,Franklin,322,1728,18.6,-3.6,Kingston Beach Hall,"20 Beach Rd, KINGSTON BEACH 7050",-42.981534,147.323507,Nelson,Kingborough
Lauderdale,Franklin,311,2434,12.8,-4.0,Lauderdale Community Hall,"528A South Arm Rd, LAUDERDALE 7021",-42.913663,147.48627,Rumney,Clarence City
Lindisfarne,Franklin,179,1453,12.3,-2.8,Lindisfarne Primary School,"17 Loatta Rd, LINDISFARNE 7015",-42.8519,147.363,Pembroke,Clarence City
Lindisfarne Village,Franklin,233,1880,12.4,-5.2,St Aidans Church Hall,"54 Lincoln St, LINDISFARNE 7015",-42.846661,147.35574,Pembroke,Clarence City
Maranoa Heights,Franklin,167,1701,9.8,-3.4,Southern Christian College,"150 Redwood Rd, KINGSTON 7050",-42.9896,147.309,Nelson,Kingborough
Margate,Franklin,338,2012,16.8,-3.1,Margate Hall,"1744 Channel Hwy, MARGATE 7054",-43.029,147.263,Huon,Kingborough
Middleton,Franklin,66,277,23.8,-5.2,South Channel Community Centre,"25 McDowall St, MIDDLETON 7163",-43.2311,147.256,Huon,Kingborough
Montagu Bay,Franklin,185,1229,15.1,-4.2,Montagu Bay Primary School,"10 Conara Rd, MONTAGU BAY 7018",-42.8646,147.353,Pembroke,Clarence City
Mornington,Franklin,71,767,9.3,-5.6,Citywide Baptist Church,"400 Cambridge Rd, MORNINGTON 7018",-42.856351,147.401753,Pembroke,Clarence City
Mountain River,Franklin,99,584,17.0,-4.5,Mountain River Memorial Hall,"263 Mountain River Rd, MOUNTAIN RIVER 7109",-42.9614,147.109,Huon,Huon Valley
Old Beach,Lyons,76,1482,5.1,-1.2,Old Beach Community Centre,"86 Jetty Rd, OLD BEACH 7017",-42.77427,147.26576,Rumney,Brighton
Ranelagh,Franklin,150,1032,14.5,-2.1,Ranelagh Memorial Hall,"40 Marguerite St, RANELAGH 7109",-43.0086,147.039,Huon,Huon Valley
Richmond,Lyons,95,928,10.2,-2.9,Richmond Primary School,"Commercial Rd, RICHMOND 7025",-42.739282,147.437988,Rumney,Clarence City
Risdon Vale,Franklin,61,1156,5.3,-0.3,Risdon Vale Primary School,"2 Heather Rd, RISDON VALE 7016",-42.8131,147.354,Rumney,Clarence City
Rokeby,Franklin,68,1350,5.0,-0.5,Emmanuel Christian School,"1 Chipmans Rd, ROKEBY 7019",-42.90091,147.438998,Rumney,Clarence City
Sandfly (Franklin),Franklin,193,871,22.2,-5.3,Sandfly Hall,"811 Sandfly Rd, SANDFLY 7150",-42.985,147.196,Huon,Kingborough
Sandford,Franklin,274,1331,20.6,-4.5,Sandford Hall,"949 South Arm Rd, SANDFORD 7020",-42.9402,147.495,Rumney,Clarence City
Seven Mile Beach,Franklin,94,796,11.8,-5.5,Ramada Resort By Wyndham Seven Mile Beach,"78 Surf Rd, SEVEN MILE BEACH 7170",-42.8526,147.511,Rumney,Clarence City
Snug,Franklin,262,1183,22.1,-3.3,Snug Primary School,"2208 Channel Hwy, SNUG 7054",-43.0664,147.255,Huon,Kingborough
South Arm,Franklin,122,676,18.0,-2.7,South Arm Primary School,"32 Harmony Lane, SOUTH ARM 7022",-43.0264,147.421,Rumney,Clarence City
Southport,Franklin,29,146,19.9,-0.4,Southport Community Centre,"8606 Huon Hwy, SOUTHPORT 7109",-43.418985,146.959638,Huon,Huon Valley
Tranmere,Franklin,185,2287,8.1,-4.3,Tranmere Hall,"27 Tranmere Rd, HOWRAH 7018",-42.8911,147.409,Pembroke,Clarence City
Warrane,Franklin,165,1964,8.4,-1.4,Warrane Primary School,"213 Cambridge Rd, WARRANE 7018",-42.86115,147.38256,Pembroke,Clarence City
Woodbridge,Franklin,170,456,37.3,-4.6,Woodbridge Hall,"3445 Channel Hwy, WOODBRIDGE 7162",-43.1601,147.239,Huon,Kingborough
Avoca,Lyons,6,177,3.4,-3.4,Avoca Primary School,"26-30 St Pauls St, AVOCA 7213",-41.782233,147.726685,McIntyre,Northern Midlands
Bagdad,Lyons,20,701,2.9,-5.6,Bagdad Primary School,"46 School Rd, BAGDAD 7030",-42.6249,147.223,Prosser,Southern Midlands
Beaconsfield,Bass,54,1024,5.3,-9.7,Beaconsfield Senior Citizens' Hall,"121 Weld St, BEACONSFIELD 7270",-41.2024,146.819,Rosevears,West Tamar
Beauty Point,Bass,44,627,7.0,-4.7,Beauty Point Uniting Church Hall,"Beatty St, BEAUTY POINT 7270",-41.148983,146.817506,Rosevears,West Tamar
Bicheno,Lyons,73,671,10.9,-3.7,Bicheno Beachfront,"Sinclair St, BICHENO 7215",-41.874363,148.299881,Prosser,Glamorgan-Spring Bay
Bothwell,Lyons,5,360,1.4,-4.2,Bothwell Council Chambers,"19 Alexander St, BOTHWELL 7030",-42.3819,147.006,Derwent,Central Highlands
Bracknell,Lyons,23,440,5.2,-3.6,Bracknell War Memorial Hall,"Louisa St, BRACKNELL 7302",-41.6512,146.943,McIntyre,Meander Valley
Bridgewater,Lyons,33,1874,1.8,-2.8,Brighton Civic Centre,"25 Green Point Rd, BRIDGEWATER 7030",-42.739164,147.243512,Derwent,Brighton
Brighton,Lyons,56,2078,2.7,-0.8,Brighton Primary School,"27 Downie St, BRIGHTON 7030",-42.6991,147.258,Derwent,Brighton
Broadmarsh,Lyons,10,221,4.5,-9.5,Broadmarsh Hall,"1218 Elderslie Rd, BROADMARSH 7030",-42.6567,147.126,Prosser,Southern Midlands
Campania,Lyons,15,489,3.1,-3.0,Campania Hall,"45 Reeve St, CAMPANIA 7026",-42.667109,147.421053,Prosser,Southern Midlands
Campbell Town,Lyons,23,670,3.4,-4.1,Campbell Town Town Hall,"75 High St, CAMPBELL TOWN 7210",-41.926995,147.494438,Prosser,Northern Midlands
Carrick,Lyons,27,610,4.4,-4.5,Carrick Public Hall,"29 Meander Valley Rd, CARRICK 7291",-41.530917,147.011259,McIntyre,Meander Valley
Chudleigh,Lyons,31,267,11.6,-6.5,Chudleigh Memorial Hall,"54 Sorell St, CHUDLEIGH 7304",-41.557239,146.481292,McIntyre,Meander Valley
Claude Road,Lyons,56,383,14.6,-5.5,Claude Road Memorial Hall,"787 Claude Rd, CLAUDE ROAD 7306",-41.4343,146.275,Montgomery,Kentish
Colebrook,Lyons,9,190,4.7,-7.4,Colebrook Fire Station,"Colebrook Rd, COLEBROOK 7027",-42.531409,147.361399,Prosser,Southern Midlands
Coles Bay,Lyons,30,194,15.5,-12.6,Coles Bay Community Hall,"60 Harold St, COLES BAY 7215",-42.1249,148.286,Prosser,Glamorgan-Spring Bay
Copping,Lyons,46,266,17.3,-8.9,Copping Hall,"69 Allanby St, COPPING 7174",-42.819982,147.802747,Prosser,Sorell
Cressy,Lyons,8,636,1.3,-3.5,Cressy Community Hall,"67 Main St, CRESSY 7302",-41.685476,147.080745,McIntyre,Northern Midlands
Deloraine,Lyons,212,1830,11.6,-4.6,Deloraine High School Hall,"East Barrack St, DELORAINE 7304",-41.52917,146.66111,McIntyre,Meander Valley
Dodges Ferry,Lyons,215,1917,11.2,-7.3,Dodges Ferry Community Recreation Centre,"532 Old Forcett Rd, DODGES FERRY 7173",-42.8485,147.624,Prosser,Sorell
Dromedary,Lyons,20,337,5.9,-1.9,Dromedary (Millvale) Community Hall,"14 Millvale Rd, DROMEDARY 7030",-42.7282,147.179,Derwent,Brighton
Dunalley,Lyons,46,392,11.7,-6.5,Dunalley Primary School,"20-32 Bay St, DUNALLEY 7177",-42.8858,147.812114,Prosser,Sorell
Elizabeth Town,Lyons,41,379,10.8,0.4,Elizabeth Town Fire Station,"5816 Bass Hwy, ELIZABETH TOWN 7304",-41.461865,146.563813,McIntyre,Meander Valley
Epping,Lyons,7,155,4.5,-3.3,Epping Forest Public Hall,"13515 Midland Hwy, EPPING FOREST 7211",-41.758076,147.349062,McIntyre,Northern Midlands
Evandale,Lyons,75,904,8.3,-5.1,Evandale Primary School,"5-11 Barclay St, EVANDALE 7212",-41.5672,147.247,McIntyre,Northern Midlands
Exeter,Bass,102,1108,9.2,-9.0,Exeter High School Gymnasium,"28 Glen Ard Mohr Rd, EXETER 7275",-41.2996,146.957,Rosevears,West Tamar
Fingal,Lyons,8,310,2.6,-3.0,Fingal Activity Centre (former Council Chambers),"29 Talbot St, FINGAL 7214",-41.638074,147.970144,McIntyre,Break O'Day
Forcett,Lyons,27,496,5.4,-5.1,Forcett Public Hall,"699 Arthur Hwy, FORCETT 7173",-42.806209,147.631863,Prosser,Sorell
Frankford,Lyons,4,101,4.0,-11.7,Frankford Memorial Hall,"Frankford Rd, FRANKFORD 7275",-41.342597,146.774898,Rosevears,West Tamar
Gagebrook,Lyons,25,847,3.0,-1.2,Gagebrook Primary School,"4 Tottenham Rd, GAGEBROOK 7030",-42.7488,147.276,Derwent,Brighton
Glengarry,Bass,32,332,9.6,0.1,Glengarry Fire Station,"Frankford Rd, GLENGARRY 7275",-41.337856,146.872457,Rosevears,West Tamar
Glenora,Lyons,14,315,4.4,-2.8,Glenora District High School,"620 Gordon River Rd, GLENORA 7140",-42.6969,146.889,Derwent,Derwent Valley
Granton,Lyons,22,546,4.0,-3.9,Granton Memorial Hall,"1 Lyell Hwy, GRANTON 7030",-42.7498,147.224,Derwent,Derwent Valley
Gravelly Beach,Bass,80,509,15.7,-16.4,Gravelly Beach Main Hall,"Edinburgh Park, off Gravelly Beach Rd, GRAVELLY BEACH 7276",-41.28322,146.969954,Rosevears,West Tamar
Hagley,Lyons,17,271,6.3,-2.7,Hagley Farm Primary School,"2508 Meander Valley Rd, HAGLEY 7292",-41.526508,146.903129,McIntyre,Meander Valley
Kelso,Bass,23,263,8.7,-13.1,Kelso Community Centre,"Foreshore Rd, KELSO 7270",-41.1037,146.794,Rosevears,West Tamar
Kempton,Lyons,5,306,1.6,-2.5,Kempton Memorial Hall,"89 Main St, KEMPTON 7030",-42.531821,147.200647,Prosser,Southern Midlands
Lachlan,Lyons,39,395,9.9,-7.1,Lachlan Community Hall,"511 Lachlan Rd, LACHLAN 7140",-42.8304,147.043,Derwent,Derwent Valley
Legana (Lyons),Lyons,70,871,8.0,-6.7,Legana Memorial Hall,"43 Fulton St, LEGANA 7277",-41.3632,147.047,Rosevears,West Tamar
Levendale,Lyons,2,82,2.4,-3.7,Levendale Community Hall,"Woodsdale Rd, LEVENDALE 7120",-42.542125,147.568369,Prosser,Southern Midlands
Longford,Lyons,76,2124,3.6,-4.1,Longford War Memorial Hall,"53 Wellington St, LONGFORD 7301",-41.59314,147.121997,McIntyre,Northern Midlands
Lower Barrington,Lyons,27,511,5.3,-4.7,Lower Barrington Public Hall,"1027 Sheffield Rd, LOWER BARRINGTON 7306",-41.291,146.291,Montgomery,Kentish
Magra,Lyons,16,504,3.2,-2.6,Magra CWA Building,"377 Back River Rd, MAGRA 7140",-42.7559,147.054,Derwent,Derwent Valley
Mathinna,Lyons,3,44,6.8,-4.6,Mathinna Community Centre,"21 High St, MATHINNA 7214",-41.471914,147.890713,McIntyre,Break O'Day
Maydena,Lyons,7,73,9.6,-5.8,Giant's Table and Cottages,"9-13 Junee Rd, MAYDENA 7140",-42.753993,146.623385,Derwent,Derwent Valley
Meander,Lyons,26,232,11.2,-11.0,Meander Hall,"124 Main Rd, MEANDER 7304",-41.65198,146.609993,McIntyre,Meander Valley
Midway Point,Lyons,57,1320,4.3,-5.2,Midway Point Community Hall,"34 Raynors Rd, MIDWAY POINT 7171",-42.7997,147.533,Rumney,Sorell
Miena,Lyons,4,162,2.5,-5.2,Miena Community Centre,"55-57 Cider Gum Rd, MIENA 7030",-41.9937,146.708,Derwent,Central Highlands
Mole Creek,Lyons,23,295,7.8,-7.0,Mole Creek Primary School,"4 Caveside Rd, MOLE CREEK 7304",-41.557472,146.406501,McIntyre,Meander Valley
Molesworth,Lyons,34,288,11.8,-10.5,Molesworth Community Hall,"560 Molesworth Rd, MOLESWORTH 7140",-42.80423,147.161093,Derwent,Derwent Valley
Moriarty,Braddon,15,239,6.3,-6.0,Moriarty Hall,"1 Bonneys Lane, MORIARTY 7307",-41.217206,146.481308,Mersey,Latrobe
New Norfolk,Lyons,103,1967,5.2,-6.4,New Norfolk Primary School,"8 Pioneer Ave, NEW NORFOLK 7140",-42.7793,147.064,Derwent,Derwent Valley
New Norfolk North,Lyons,31,1115,2.8,-0.2,Fairview Primary School,"211 Back River Rd, NEW NORFOLK 7140",-42.774251,147.04917,Derwent,Derwent Valley
Nubeena,Lyons,95,688,13.8,-3.8,Tasman Civic Centre,"21 Clarke St, NUBEENA 7184",-43.099706,147.744677,Prosser,Tasman
Oatlands,Lyons,41,657,6.2,-2.8,Oatlands Council Chambers,"71 High St, OATLANDS 7120",-42.299995,147.372094,Prosser,Southern Midlands
Orford,Lyons,62,507,12.2,3.1,Orford Primary School,"35 Charles st, ORFORD 7190",-42.563502,147.87386,Prosser,Glamorgan-Spring Bay
Ouse,Lyons,7,362,1.9,-3.7,Ouse Online Centre,"6947 Lyell Hwy, OUSE 7140",-42.485288,146.711018,Derwent,Central Highlands
Perth,Lyons,66,1781,3.7,-2.4,Perth Community Centre,"173 Fairtlough St, PERTH 7300",-41.5725,147.173,McIntyre,Northern Midlands
Pontville,Lyons,24,561,4.3,-4.3,Pontville Old Council Chambers,"371 Brighton Rd, PONTVILLE 7030",-42.683895,147.265554,Prosser,Brighton
Port Sorell,Braddon,117,2411,4.9,-4.3,Port Sorell Memorial Hall,"cnr Meredith St & Darling St, PORT SORELL 7307",-41.165409,146.555718,Mersey,Latrobe
Primrose Sands,Lyons,27,516,5.2,-2.7,Primrose Sands Community Hall,"570 Primrose Sands Rd, PRIMROSE SANDS 7173",-42.892403,147.671829,Prosser,Sorell
Railton,Lyons,30,703,4.3,-2.1,Sheffield School - Railton Campus,"94 Foster St, RAILTON 7305",-41.3526,146.414,McIntyre,Kentish
Ross,Lyons,12,309,3.9,-3.2,Ross Town Hall,"12 Bridge St, ROSS 7209",-42.031409,147.492498,Prosser,Northern Midlands
Sassafras,Braddon,2,257,0.8,-2.4,Sassafras Primary School,"50 School Rd, SASSAFRAS 7307",-41.2871,146.503,Mersey,Latrobe
Scamander,Lyons,60,503,11.9,-8.5,Scamander Sports Complex,"1 Old Coach Rd, SCAMANDER 7215",-41.454218,148.26009,McIntyre,Break O'Day
Sheffield,Lyons,75,1074,7.0,-3.4,Sheffield School,"12 Henry St, SHEFFIELD 7306",-41.380689,146.330316,Montgomery,Kentish
Sidmouth,Bass,46,429,10.7,-15.2,Sidmouth Community Centre,"255 Batman Hwy, SIDMOUTH 7270",-41.2221,146.887,Rosevears,West Tamar
Sorell,Lyons,99,2059,4.8,-3.2,Sorell Memorial Hall,"47 Cole St, SORELL 7172",-42.780612,147.560628,Prosser,Sorell
St Helens,Lyons,101,1221,8.3,-5.9,St Helens District High School,"9 Circassian St, ST HELENS 7216",-41.324539,148.246265,McIntyre,Break O'Day
St Marys,Lyons,71,547,13.0,-7.9,St Marys Community Hall,"23 Main St, ST MARYS 7215",-41.57969,148.18531,McIntyre,Break O'Day
Swansea,Lyons,77,769,10.0,-2.0,Swansea Primary School,"25 Franklin St, SWANSEA 7190",-42.122367,148.073185,Prosser,Glamorgan-Spring Bay
Taranna,Lyons,60,404,14.9,-10.1,Tasman Peninsula Community Centre,"Gourlay Rd, TARANNA 7180",-43.037984,147.867522,Prosser,Tasman
Tea Tree,Lyons,11,225,4.9,-5.8,Tea Tree Community Hall,"Briar Banks Rd, TEA TREE 7017",-42.689533,147.323592,Prosser,Brighton
Triabunna,Lyons,29,619,4.7,0.3,Triabunna Hall,"3 Vicary St, TRIABUNNA 7190",-42.50822,147.910384,Prosser,Glamorgan-Spring Bay
Tunnack,Lyons,5,196,2.6,-4.4,Tunnack Public Hall,"2147 Tunnack Rd, TUNNACK 7120",-42.456521,147.461779,Prosser,Southern Midlands
Wesley Vale,Braddon,17,200,8.5,-3.2,Andrews Creek Primary School,"20 Westwind Dr, WESLEY VALE 7307",-41.188828,146.456401,Mersey,Latrobe
Westbury,Lyons,88,1252,7.0,-2.6,Westbury Town Hall,"26 Lyall St, WESTBURY 7303",-41.528106,146.83102,McIntyre,Meander Valley
Westerway,Lyons,24,304,7.9,-7.3,Westerway Primary School,"1619 Gordon River Rd, WESTERWAY 7140",-42.6775,146.787,Derwent,Derwent Valley
Wilmot,Lyons,38,238,16.0,-7.2,Wilmot Primary School,"61 Main St, WILMOT 7310",-41.386919,146.175659,Montgomery,Kentish
