PollingPlaceNm,DivisionNm,GreensVotes_2018,TotalVotes_2018,GreensPercentage_2018,PremisesNm_2018,PremisesAddress_2018,Latitude,Longitude,LegCo,LocalCouncil,GreensVotes_2014,TotalVotes_2014,GreensPercentage_2014,PremisesNm_2014,PremisesAddress_2014,SwingPercentage
Blessington Upper,Bass,6,57,10.5,North Esk Memorial Hall,"3132 Blessington Rd, BLESSINGTON 7212",-41.48243,147.50494,Windermere,Launceston City,11,84,13.1,North Esk Memorial Hall,"3132 Blessington Rd, BLESSINGTON 7212",-2.6
Branxholm,Bass,13,180,7.2,Branxholm Community Hall,"Stoke St, BRANXHOLM 7261",-41.165606,147.73648,McIntyre,Dorset,21,184,11.4,Branxholm Community Hall,"Stoke St, BRANXHOLM 7261",-4.2
Bridport,Bass,55,1077,5.1,Bridport Hall,"Main St, BRIDPORT 7262",-41.0026,147.395,McIntyre,Dorset,74,1085,6.8,Bridport Hall,"Main St, BRIDPORT 7262",-1.7
Derby,Bass,28,105,26.7,Derby Town Hall,"1 Krushka St, DERBY 7264",-41.14933,147.80236,McIntyre,Dorset,16,101,15.8,Derby Town Hall,"1 Krushka St, DERBY 7264",10.9
Dilston,Bass,96,675,14.2,Dilston War Memorial Hall,"308 John Lees Dr, DILSTON 7252",-41.3368,147.082,Windermere,Launceston City,119,633,18.8,Dilston War Memorial Hall,"308 John Lees Dr, DILSTON 7252",-4.6
East Launceston,Bass,219,1242,17.6,East Launceston Primary School,"18 Mary St, EAST LAUNCESTON 7250",-41.44144,147.151372,Launceston,Launceston City,241,954,25.3,East Launceston Primary School,"18 Mary St, EAST LAUNCESTON 7250",-7.7
Five Ways,Bass,145,1130,12.8,St Mark's Church Hall,"6 Hobart Rd, SOUTH LAUNCESTON 7249",-41.45908,147.15402,Launceston,Launceston City,192,1306,14.7,St Mark's Church Hall,"6 Hobart Rd, SOUTH LAUNCESTON 7249",-1.9
George Town,Bass,102,1705,6.0,George Town Memorial Hall,"29-67 Macquarie St, GEORGE TOWN 7253",-41.106907,146.821868,Windermere,George Town,139,1667,8.3,George Town Memorial Hall,"29-67 Macquarie St, GEORGE TOWN 7253",-2.3
George Town South,Bass,33,896,3.7,South George Town Primary School,"Franklin St, GEORGE TOWN 7253",-41.1124,146.833,Windermere,George Town,58,892,6.5,South George Town Primary School,"Franklin St, GEORGE TOWN 7253",-2.8
Gladstone,Bass,12,174,6.9,Gladstone Hall,"1 Carr St, GLADSTONE 7264",-40.9601,148.008,McIntyre,Dorset,17,152,11.2,Gladstone Hall,"1 Carr St, GLADSTONE 7264",-4.3
Hadspen,Lyons,55,1203,4.6,Hadspen Uniting Church Centre,"47 Main St, HADSPEN 7290",-41.5064,147.064,Launceston,Meander Valley,66,1088,6.1,Hadspen Uniting Church Centre,"47 Main St, HADSPEN 7290",-1.5
Hillwood,Bass,48,458,10.5,Hillwood Memorial Hall,"280 Hillwood Jetty Rd, HILLWOOD 7252",-41.236252,146.974945,Windermere,George Town,64,375,17.1,Hillwood Memorial Hall,"280 Hillwood Jetty Rd, HILLWOOD 7252",-6.6
Inveresk,Bass,154,1155,13.3,Invermay Primary School,"35-43 Mayne St, INVERMAY 7248",-41.421676,147.131233,Windermere,Launceston City,144,949,15.2,Invermay Primary School,"35-43 Mayne St, INVERMAY 7248",-1.9
Invermay,Bass,133,1165,11.4,St Finn Barr's School,"247 Invermay Rd, INVERMAY 7248",-41.4157,147.132,Windermere,Launceston City,203,1368,14.8,St Finn Barr's School,"247 Invermay Rd, INVERMAY 7248",-3.4
Karoola,Bass,29,333,8.7,Karoola Hall,"1126 Pipers River Rd, KAROOLA 7267",-41.2539,147.148,Windermere,Launceston City,39,295,13.2,Karoola Hall,"1126 Pipers River Rd, KAROOLA 7267",-4.5
Kings Meadows,Bass,140,2119,6.6,YMCA Centre,"8A Blaydon St, KINGS MEADOWS 7249",-41.4677,147.16,Launceston,Launceston City,186,2062,9.0,YMCA Centre,"8A Blaydon St, KINGS MEADOWS 7249",-2.4
Lady Barron,Bass,10,125,8.0,Holloway Park Building,"Barr St, LADY BARRON 7255",-40.2105,148.24342,McIntyre,Flinders,13,119,10.9,Holloway Park Building,"Barr St, LADY BARRON 7255",-2.9
Launceston,Bass,236,1084,21.8,Pilgrim Hall,"36 Paterson St, LAUNCESTON 7250",-41.4366,147.137,Launceston,Launceston City,219,924,23.7,Pilgrim Hall,"36 Paterson St, LAUNCESTON 7250",-1.9
Launceston Central,Bass,205,979,20.9,Chalmers Hall,"163 St John St, LAUNCESTON 7250",-41.441,147.14205,Launceston,Launceston City,193,842,22.9,Launceston Central Polling Booth,"85a George St, LAUNCESTON 7250",-2.0
Lebrina,Bass,20,210,9.5,Lebrina Memorial Hall,"905 Golconda Rd, LEBRINA 7254",-41.1773,147.228,Windermere,Launceston City,31,205,15.1,Lebrina Memorial Hall,"905 Golconda Rd, LEBRINA 7254",-5.6
Legana (Bass),Bass,146,1954,7.5,Legana Memorial Hall,"43 Fulton St, LEGANA 7277",-41.3632,147.047,Rosevears,West Tamar,214,1751,12.2,Legana Memorial Hall,"43 Fulton St, LEGANA 7277",-4.7
Lilydale,Bass,95,674,14.1,Lilydale Memorial Hall,"1949 Main Rd, LILYDALE 7268",-41.2523,147.216,Windermere,Launceston City,152,696,21.8,Lilydale Memorial Hall,"1949 Main Rd, LILYDALE 7268",-7.7
Mowbray,Bass,91,889,10.2,Launceston Church Grammar School,"36 Button St, MOWBRAY 7248",-41.40814,147.131059,Windermere,Launceston City,90,942,9.6,Launceston Church Grammar School,"36 Button St, MOWBRAY 7248",0.6
Newnham,Bass,140,2672,5.2,Launceston North Uniting Church,"128-132 George Town Rd, NEWNHAM 7248",-41.3873,147.128,Windermere,Launceston City,204,2673,7.6,Launceston North Uniting Church,"128-132 George Town Rd, NEWNHAM 7248",-2.4
Newstead,Bass,277,2167,12.8,Police Citizens & Youth Club,"148 Abbott St, NEWSTEAD 7250",-41.4472,147.157,Launceston,Launceston City,248,1458,17.0,Newstead Baptist Church,"14 Wentworth St, NEWSTEAD 7250",-4.2
Norwood,Bass,169,2306,7.3,Norwood Primary School,"103 Norwood Ave, NORWOOD 7250",-41.4621,147.174,Launceston,Launceston City,217,2277,9.5,Norwood Primary School,"103 Norwood Ave, NORWOOD 7250",-2.2
Nunamara,Bass,28,296,9.5,Nunamara Memorial Hall,"39461 Tasman Hwy, NUNAMARA 7259",-41.394,147.296,Windermere,Launceston City,39,228,17.1,Nunamara Memorial Hall,"39461 Tasman Hwy, NUNAMARA 7259",-7.6
Pipers River,Bass,19,210,9.0,Pipers River Fire Station,"76 School Rd, PIPERS RIVER 7252",-41.1006,147.091,Windermere,George Town,27,226,11.9,Pipers River Fire Station,"76 School Rd, PIPERS RIVER 7252",-2.9
Prospect,Bass,88,2048,4.3,St Patrick's College,"282 Westbury Rd, PROSPECT 7250",-41.472,147.126,Rosevears,Launceston City,135,1966,6.9,St Patrick's College,"282 Westbury Rd, PROSPECT 7250",-2.6
Prospect Vale,Lyons,60,1214,4.9,Residential Retirement Village Clubrooms,"12 Casino Rise, PROSPECT VALE 7250",-41.4782,147.11,Launceston,Meander Valley,96,1200,8.0,Residential Retirement Village Clubrooms,"12 Casino Rise, PROSPECT VALE 7250",-3.1
Ravenswood,Bass,76,1564,4.9,Ravenswood Primary School,"27 Prossers Forest Rd, RAVENSWOOD 7250",-41.415955,147.179654,Windermere,Launceston City,128,1584,8.1,Ravenswood Primary School,"27 Prossers Forest Rd, RAVENSWOOD 7250",-3.2
Ringarooma,Bass,10,301,3.3,Ringarooma Hall,"4 Charles St, RINGAROOMA 7263",-41.24241,147.73568,McIntyre,Dorset,27,333,8.1,Ringarooma Hall,"4 Charles St, RINGAROOMA 7263",-4.8
Riverside,Bass,204,2215,9.2,Riverside High School,"354 West Tamar Hwy, RIVERSIDE 7250",-41.40936,147.09861,Rosevears,West Tamar,312,2275,13.7,Riverside High School,"354 West Tamar Hwy, RIVERSIDE 7250",-4.5
Riverside West,Bass,101,1419,7.1,Trevallyn Life Church,"34 Pitt Ave, TREVALLYN 7250",-41.4301,147.106,Rosevears,West Tamar,156,1253,12.5,Trevallyn Life Church,"34 Pitt Ave, TREVALLYN 7250",-5.4
Rocherlea,Bass,20,701,2.9,Brooks High School,"215 George Town Rd, ROCHERLEA 7248",-41.378531,147.121503,Windermere,Launceston City,38,664,5.7,Brooks High School,"215 George Town Rd, ROCHERLEA 7248",-2.8
Scottsdale,Bass,39,1187,3.3,St Barnabas' Church Hall,"55 King St, SCOTTSDALE 7260",-41.16255,147.51491,McIntyre,Dorset,75,1773,4.2,St Barnabas' Church Hall,"55 King St, SCOTTSDALE 7260",-0.9
South Launceston,Bass,107,704,15.2,Launceston RSL,"313-315 Wellington St, LAUNCESTON 7250",-41.45296,147.14393,Rosevears,Launceston City,72,414,17.4,Launceston RSL,"313-315 Wellington St, LAUNCESTON 7250",-2.2
St Leonards,Bass,63,1224,5.1,St Leonards Primary School,"330-342 St Leonards Rd, ST LEONARDS 7250",-41.4597,147.2,Windermere,Launceston City,81,1154,7.0,St Leonards Primary School,"330-342 St Leonards Rd, ST LEONARDS 7250",-1.9
Summerhill,Bass,189,2976,6.4,Summerdale Community Centre,"82-84 Stanley St, SUMMERHILL 7250",-41.4683,147.12971,Rosevears,Launceston City,219,2967,7.4,Summerdale Community Centre,"82-84 Stanley St, SUMMERHILL 7250",-1.0
Trevallyn,Bass,385,1592,24.2,Trevallyn Primary School,"55 Gorge Rd, TREVALLYN 7250",-41.4381,147.115,Rosevears,West Tamar,477,1658,28.8,Trevallyn Primary School,"55 Gorge Rd, TREVALLYN 7250",-4.6
Waverley,Bass,36,838,4.3,Waverley School Hall,"6 Naroo St, WAVERLEY 7250",-41.4321,147.19,Windermere,Launceston City,61,795,7.7,Waverley School Hall,"6 Naroo St, WAVERLEY 7250",-3.4
West Launceston,Bass,365,1663,21.9,West Launceston Primary School,"24-38 Basin Rd, WEST LAUNCESTON 7250",-41.4492,147.129,Rosevears,Launceston City,455,1655,27.5,West Launceston Primary School,"24-38 Basin Rd, WEST LAUNCESTON 7250",-5.6
Weymouth,Bass,9,166,5.4,Weymouth Hall,"18 Major St, WEYMOUTH 7252",-41.0153,147.154,Windermere,George Town,22,162,13.6,Weymouth Hall,"18 Major St, WEYMOUTH 7252",-8.2
Whitemark,Bass,54,335,16.1,Lions Club,"1 James St, WHITEMARK 7255",-40.1214,148.019,McIntyre,Flinders,61,322,18.9,Lions Club,"1 James St, WHITEMARK 7255",-2.8
Winnaleah,Bass,11,181,6.1,Winnaleah Memorial Hall,"20 Main St, WINNALEAH 7265",-41.0979,147.824,McIntyre,Dorset,11,189,5.8,Winnaleah Memorial Hall,"20 Main St, WINNALEAH 7265",0.3
Youngtown,Bass,61,1491,4.1,Youngtown Primary School,"Victoria St, YOUNGTOWN 7249",-41.4823,147.164,Launceston,Launceston City,118,1473,8.0,Youngtown Primary School,"Victoria St, YOUNGTOWN 7249",-3.9
Abbotsham,Braddon,9,164,5.5,Abbotsham Hall,"590 Castra Rd, ABBOTSHAM 7315",-41.2135,146.174,Montgomery,Central Coast,9,151,6.0,Abbotsham Hall,"590 Castra Rd, ABBOTSHAM 7315",-0.5
Acton,Braddon,30,1352,2.2,Burnie Child and Family Centre,"36 Thorne St, ACTON 7320",-41.07264,145.89229,Montgomery,Burnie City,60,1496,4.0,Burnie Child and Family Centre,"36 Thorne St, ACTON 7320",-1.8
Boat Harbour,Braddon,32,473,6.8,Boat Harbour Primary School,"17386 Bass Hwy, BOAT HARBOUR 7321",-40.9452,145.636,Murchison,Waratah-Wynyard,58,367,15.8,Boat Harbour Primary School,"17386 Bass Hwy, BOAT HARBOUR 7321",-9.0
Burnie,Braddon,67,1388,4.8,Burnie City Council Offices,"80 Wilson St, BURNIE 7320",-41.0532,145.906,Murchison,Burnie City,132,1403,9.4,Burnie City Council Offices,"80 Wilson St, BURNIE 7320",-4.6
Calder,Braddon,2,143,1.4,Calder Hall,"1320 Calder Rd, CALDER 7325",-41.0685,145.631,Murchison,Waratah-Wynyard,14,125,11.2,Calder Hall,"1320 Calder Rd, CALDER 7325",-9.8
Cooee,Braddon,31,913,3.4,Cooee Primary School,"30 Fidler St, COOEE 7320",-41.04076,145.86801,Murchison,Burnie City,67,965,6.9,Cooee Primary School,"30 Fidler St, COOEE 7320",-3.5
Currie,Braddon,76,696,10.9,Currie Town Hall,"10 George St, CURRIE 7256",-39.9298,143.855,Murchison,King Island,55,634,8.7,Currie Town Hall,"10 George St, CURRIE 7256",2.2
Devonport Central,Braddon,75,1815,4.1,St Johns Parish Hall,"Fenton St, DEVONPORT 7310",-41.178994,146.358274,Mersey,Devonport City,123,1439,8.5,St Johns Parish Hall,"Fenton St, DEVONPORT 7310",-4.4
Devonport North West,Braddon,84,2431,3.5,Nixon Street Primary School,"60 Nixon St, DEVONPORT 7310",-41.1728,146.337,Mersey,Devonport City,156,2043,7.6,Nixon Street Primary School,"60 Nixon St, DEVONPORT 7310",-4.1
Devonport South,Braddon,41,1342,3.1,Reece High School,"41-43 Middle Rd, DEVONPORT 7310",-41.1893,146.349,Mersey,Devonport City,54,1037,5.2,Reece High School,"41-43 Middle Rd, DEVONPORT 7310",-2.1
Devonport West,Braddon,22,1178,1.9,TasTafe,"20-36 Valley Rd, DEVONPORT 7310",-41.1864,146.345,Mersey,Devonport City,47,1134,4.1,TasTafe,"20-36 Valley Rd, DEVONPORT 7310",-2.2
Don,Braddon,45,1202,3.7,Don Memorial Hall,"17 Forth Rd, DON 7310",-41.1827,146.318,Mersey,Devonport City,76,1015,7.5,Don Memorial Hall,"17 Forth Rd, DON 7310",-3.8
East Devonport,Braddon,50,2033,2.5,East Devonport Primary School,"19-21 Thomas St, EAST DEVONPORT 7310",-41.1779,146.372,Mersey,Devonport City,85,1741,4.9,East Devonport Primary School,"19-21 Thomas St, EAST DEVONPORT 7310",-2.4
Edith Creek,Braddon,2,157,1.3,Edith Creek Primary School,"1282 Trowutta Rd, EDITH CREEK 7330",-40.9705,145.092,Murchison,Circular Head,10,201,5.0,Edith Creek Primary School,"1282 Trowutta Rd, EDITH CREEK 7330",-3.7
Elliott,Braddon,11,386,2.8,Elliott Community Centre,"829 Murchison Hwy, ELLIOTT 7325",-41.0922,145.782,Murchison,Waratah-Wynyard,21,315,6.7,Elliott Community Centre,"829 Murchison Hwy, ELLIOTT 7325",-3.9
Forest,Braddon,3,383,0.8,Forest Primary School,"422 Mengha Rd, FOREST 7330",-40.8486,145.248,Murchison,Circular Head,10,370,2.7,Forest Primary School,"422 Mengha Rd, FOREST 7330",-1.9
Forth,Braddon,44,682,6.5,Forth Primary School,"45 Wilmot Rd, FORTH 7310",-41.192921,146.248975,Montgomery,Central Coast,109,769,14.2,Forth Primary School,"45 Wilmot Rd, FORTH 7310",-7.7
Gawler,Braddon,14,466,3.0,Gawler Hall,"15 Top Gawler Rd, GAWLER 7315",-41.1852,146.16,Montgomery,Central Coast,20,433,4.6,Gawler Hall,"15 Top Gawler Rd, GAWLER 7315",-1.6
Grassy,Braddon,14,120,11.7,Grassy Club,"10 Grassy Rd, GRASSY 7256",-40.0484,144.058,Murchison,King Island,10,114,8.8,Grassy Club,"10 Grassy Rd, GRASSY 7256",2.9
Havenview,Braddon,13,440,3.0,Havenview Primary School,"15 Marriott St, HAVENVIEW 7320",-41.0836,145.911,Montgomery,Burnie City,17,548,3.1,Havenview Primary School,"15 Marriott St, HAVENVIEW 7320",-0.1
Heybridge,Braddon,9,266,3.4,Blythe Heads Hall,"Sice Ave, HEYBRIDGE 7316",-41.0751,145.986,Montgomery,Central Coast,18,289,6.2,Blythe Heads Hall,"Sice Ave, HEYBRIDGE 7316",-2.8
Highclere,Braddon,3,135,2.2,Highclere Community Centre,"1558 Ridgley Hwy, HIGHCLERE 7321",-41.1904,145.806,Montgomery,Burnie City,7,167,4.2,Highclere Community Centre,"1558 Ridgley Hwy, HIGHCLERE 7321",-2.0
Irishtown,Braddon,1,326,0.3,Irishtown Lodge Arthur Temple,"604 Irishtown Rd, IRISHTOWN 7330",-40.9133,145.145,Murchison,Circular Head,5,347,1.4,Irishtown Lodge Arthur Temple,"604 Irishtown Rd, IRISHTOWN 7330",-1.1
Latrobe,Braddon,59,2295,2.6,Latrobe Primary School,"23 Lewis St, LATROBE 7307",-41.239619,146.416013,Mersey,Latrobe,124,2294,5.4,Latrobe Primary School,"23 Lewis St, LATROBE 7307",-2.8
Marrawah,Braddon,6,219,2.7,Marrawah Memorial Hall,"844 Comeback Rd, MARRAWAH 7330",-40.9229,144.697,Murchison,Circular Head,16,197,8.1,Marrawah Memorial Hall,"844 Comeback Rd, MARRAWAH 7330",-5.4
Melrose,Braddon,12,227,5.3,Melrose Memorial Hall,"673 Melrose Rd, MELROSE 7310",-41.2417,146.289,Mersey,Devonport City,28,199,14.1,Melrose Memorial Hall,"673 Melrose Rd, MELROSE 7310",-8.8
Montello,Braddon,30,1128,2.7,Montello Primary School,"83 Bird St, MONTELLO 7320",-41.0605,145.898,Murchison,Burnie City,69,1292,5.3,Montello Primary School,"83 Bird St, MONTELLO 7320",-2.6
Moorleah,Braddon,9,183,4.9,Moorleah Community Centre,"720 Preolenna Rd, MOORLEAH 7321",-40.981,145.616,Murchison,Waratah-Wynyard,28,153,18.3,Moorleah Community Centre,"720 Preolenna Rd, MOORLEAH 7321",-13.4
Natone,Braddon,9,134,6.7,Natone Primary School,"100 Upper Natone Rd, NATONE 7321",-41.1701,145.922,Montgomery,Burnie City,11,130,8.5,Natone Primary School,"100 Upper Natone Rd, NATONE 7321",-1.8
North Motton,Braddon,17,291,5.8,North Motton Hall,"578 Preston Rd, NORTH MOTTON 7315",-41.20637,146.10937,Montgomery,Central Coast,32,234,13.7,North Motton Hall,"578 Preston Rd, NORTH MOTTON 7315",-7.9
Penguin,Braddon,105,1982,5.3,Penguin Uniting Church Hall,"50 Main Rd, PENGUIN 7316",-41.112,146.071,Montgomery,Central Coast,226,2010,11.2,Penguin Uniting Church Hall,"50 Main Rd, PENGUIN 7316",-5.9
Preston,Braddon,9,116,7.8,Preston Community Centre,"1833 Preston Rd, PRESTON 7315",-41.2972,146.062,Montgomery,Central Coast,17,109,15.6,Preston Community Centre,"1833 Preston Rd, PRESTON 7315",-7.8
Queenstown,Braddon,24,729,3.3,West Coast Community Services Hub,"Hunter St, QUEENSTOWN 7467",-42.078959,145.555963,Murchison,West Coast,52,953,5.5,Queenstown Memorial Hall,"53 Orr St, QUEENSTOWN 7467",-2.2
Riana,Braddon,10,197,5.1,Riana Community Centre,"1221 Pine Rd, RIANA 7316",-41.2015,145.999,Montgomery,Central Coast,18,217,8.3,Riana Community Centre,"1221 Pine Rd, RIANA 7316",-3.2
Ridgley,Braddon,15,615,2.4,Ridgley Primary School,"904 Ridgley Hwy, RIDGLEY 7321",-41.1398,145.837,Montgomery,Burnie City,21,638,3.3,Ridgley Primary School,"904 Ridgley Hwy, RIDGLEY 7321",-0.9
Rocky Cape,Braddon,7,401,1.7,Rocky Cape Public Hall,"19074 Bass Hwy, ROCKY CAPE 7321",-40.905,145.487,Murchison,Circular Head,24,416,5.8,Rocky Cape Public Hall,"19074 Bass Hwy, ROCKY CAPE 7321",-4.1
Romaine,Braddon,20,1288,1.6,Romaine Park Primary School,"cnr Roslyn Ave & Mount St, ROMAINE 7320",-41.076634,145.899584,Montgomery,Burnie City,48,1456,3.3,Romaine Park Primary School,"cnr Roslyn Ave & Mount St, ROMAINE 7320",-1.7
Rosebery,Braddon,4,298,1.3,Rosebery Neighbourhood Centre,"8 Agnes St, ROSEBERY 7470",-41.779832,145.539126,Murchison,West Coast,14,411,3.4,Rosebery Neighbourhood Centre,"8 Agnes St, ROSEBERY 7470",-2.1
Shorewell Park,Braddon,34,1079,3.2,Hellyer College,"41-43 Mooreville Rd, SHOREWELL PARK 7320",-41.06128,145.88153,Murchison,Burnie City,63,960,6.6,Hellyer College,"41-43 Mooreville Rd, SHOREWELL PARK 7320",-3.4
Sisters Beach,Braddon,15,224,6.7,Sisters Beach Fire Station,"34 Honeysuckle Ave, SISTERS BEACH 7321",-40.9181,145.565,Murchison,Waratah-Wynyard,27,196,13.8,Sisters Beach Fire Station,"34 Honeysuckle Ave, SISTERS BEACH 7321",-7.1
Sisters Creek,Braddon,15,132,11.4,Myalla Community Centre,"29 Myalla Rd, Sisters Creek 7325",-40.964904,145.572884,Murchison,Waratah-Wynyard,38,176,21.6,Sisters Creek Community Hall,"17894 Bass Hwy, SISTERS CREEK 7325",-10.2
Smithton,Braddon,19,1542,1.2,Smithton Primary School,"27-43 Grant St, SMITHTON 7330",-40.849445,145.116059,Murchison,Circular Head,42,1983,2.1,Smithton Uniting Church Hall,"45 Goldie St, SMITHTON 7330",-0.9
Somerset,Braddon,35,1591,2.2,Somerset Primary School,"30A Beaufort St, SOMERSET 7322",-41.038182,145.819344,Murchison,Waratah-Wynyard,101,1784,5.7,Somerset Primary School,"30A Beaufort St, SOMERSET 7322",-3.5
South Riana,Braddon,8,186,4.3,South Riana Hall,"776 South Riana Rd, SOUTH RIANA 7316",-41.2345,145.977,Montgomery,Central Coast,18,171,10.5,South Riana Hall,"776 South Riana Rd, SOUTH RIANA 7316",-6.2
Sprent,Braddon,10,192,5.2,Sprent Primary School,"1245 Castra Rd, SPRENT 7315",-41.2627,146.16,Montgomery,Central Coast,17,206,8.3,Sprent Primary School,"1245 Castra Rd, SPRENT 7315",-3.1
Spreyton,Braddon,44,1540,2.9,Spreyton Primary School,"1 Mersey Main Rd, SPREYTON 7310",-41.21207,146.34434,Mersey,Devonport City,70,1324,5.3,Spreyton Primary School,"1 Mersey Main Rd, SPREYTON 7310",-2.4
Stanley,Braddon,22,395,5.6,Stanley Primary School,"28 Pearse St, STANLEY 7331",-40.7603,145.291,Murchison,Circular Head,39,371,10.5,Stanley Primary School,"28 Pearse St, STANLEY 7331",-4.9
Stowport,Braddon,6,268,2.2,Stowport Public Hall,"580 Stowport Rd, STOWPORT 7321",-41.1124,145.929,Montgomery,Burnie City,19,267,7.1,Stowport Public Hall,"580 Stowport Rd, STOWPORT 7321",-4.9
Strahan,Braddon,12,397,3.0,Strahan Primary School,"2 Bay St, STRAHAN 7468",-42.154043,145.320404,Murchison,West Coast,23,442,5.2,Strahan Fire Station,"18 Reid St, STRAHAN 7468",-2.2
Sulphur Creek,Braddon,23,705,3.3,Sulphur Creek Hall,"310 Preservation Dr, SULPHUR CREEK 7316",-41.0935,146.026,Montgomery,Central Coast,49,553,8.9,Sulphur Creek Hall,"310 Preservation Dr, SULPHUR CREEK 7316",-5.6
Tullah,Braddon,5,117,4.3,Tullah Community Hall,"24 Farrell St, TULLAH 7321",-41.737568,145.616076,Murchison,West Coast,5,109,4.6,Tullah Community Hall,"24 Farrell St, TULLAH 7321",-0.3
Turners Beach,Braddon,31,896,3.5,Turners Beach Hall,"Henry St, TURNERS BEACH 7315",-41.1589,146.244,Montgomery,Central Coast,77,859,9.0,Turners Beach Hall,"Henry St, TURNERS BEACH 7315",-5.5
Ulverstone Central,Braddon,44,1095,4.0,Ulverstone Senior Citizens Club,"16 King Edward St, ULVERSTONE 7315",-41.15507,146.171931,Montgomery,Central Coast,100,1497,6.7,Ulverstone Guide Hall,"34 Main St, ULVERSTONE 7315",-2.7
Ulverstone East,Braddon,23,948,2.4,East Ulverstone Primary School,"18 Crawford St, ULVERSTONE 7315",-41.1546,146.192,Montgomery,Central Coast,66,844,7.8,East Ulverstone Primary School,"18 Crawford St, ULVERSTONE 7315",-5.4
Ulverstone South,Braddon,84,2328,3.6,Ulverstone High School,"38 Leven St, ULVERSTONE 7315",-41.16201,146.17091,Montgomery,Central Coast,133,2086,6.4,Ulverstone High School,"38 Leven St, ULVERSTONE 7315",-2.8
Waratah,Braddon,3,142,2.1,Waratah Municipal Chambers,"12-14 Smith St, WARATAH 7321",-41.44422,145.5313,Murchison,Waratah-Wynyard,6,149,4.0,Waratah Municipal Chambers,"12-14 Smith St, WARATAH 7321",-1.9
West Ulverstone,Braddon,49,1616,3.0,West Ulverstone Primary School,"34 Maud St, WEST ULVERSTONE 7315",-41.1482,146.16,Montgomery,Central Coast,92,1613,5.7,West Ulverstone Primary School,"34 Maud St, WEST ULVERSTONE 7315",-2.7
Wivenhoe,Braddon,14,525,2.7,Leighland Christian School (Wivenhoe Campus),"Stowport Rd, WIVENHOE 7320",-41.06904,145.93609,Montgomery,Burnie City,41,541,7.6,Leighland Christian School (Wivenhoe Campus),"Stowport Rd, WIVENHOE 7320",-4.9
Wynyard Central,Braddon,70,2151,3.3,Wynyard Senior Citizens Club Rooms,"28 Jackson St, WYNYARD 7325",-40.9909,145.729,Murchison,Waratah-Wynyard,207,2342,8.8,Wynyard Senior Citizens Club Rooms,"28 Jackson St, WYNYARD 7325",-5.5
Wynyard West,Braddon,43,1314,3.3,Wynyard High School,"30 Church St, WYNYARD 7325",-40.9867,145.717,Murchison,Waratah-Wynyard,112,1305,8.6,Wynyard High School,"30 Church St, WYNYARD 7325",-5.3
Yolla,Braddon,8,358,2.2,Yolla District High School,"School Lane, YOLLA 7325",-41.1237,145.719,Murchison,Waratah-Wynyard,32,373,8.6,Yolla District High School,"School Lane, YOLLA 7325",-6.4
Zeehan,Braddon,11,352,3.1,Zeehan Primary School,"7 Belstead St, ZEEHAN 7469",-41.888,145.34,Murchison,West Coast,13,388,3.4,Zeehan Primary School,"7 Belstead St, ZEEHAN 7469",-0.3
Austins Ferry,Clark,68,1519,4.5,St Virgil's College,"195 Main Rd, AUSTINS FERRY 7011",-42.774487,147.251105,Derwent,Glenorchy City,93,1666,5.6,St Virgil's College,"195 Main Rd, AUSTINS FERRY 7011",-1.1
Battery Point,Clark,197,833,23.6,10th Hobart Scout Hall,"Marieville Esp, SANDY BAY 7004",-42.896023,147.333912,Hobart,Hobart City,400,1196,33.4,St George's Church Hall,"28 Cromwell St, BATTERY POINT 7004",-9.8
Battery Point West,Clark,202,808,25.0,Albuera Street Primary School,"10A Albuera St, BATTERY POINT 7004",-42.8912,147.326,Hobart,Hobart City,162,499,32.5,Albuera Street Primary School,"10A Albuera St, BATTERY POINT 7004",-7.5
Cascades,Clark,494,1148,43.0,Badminton Association Centre,"101 Cascade Rd, SOUTH HOBART 7004",-42.895023,147.299845,Hobart,Hobart City,469,931,50.4,Badminton Association Centre,"101 Cascade Rd, SOUTH HOBART 7004",-7.4
Chigwell,Clark,59,1184,5.0,Chigwell Barn,"10 Bucaan St, CHIGWELL 7011",-42.811194,147.241655,Derwent,Glenorchy City,74,1029,7.2,Chigwell Barn,"10 Bucaan St, CHIGWELL 7011",-2.2
Claremont,Clark,143,2559,5.6,Claremont Girl Guides Hall,"3 Boxhill Rd, CLAREMONT 7011",-42.792307,147.255999,Derwent,Glenorchy City,177,2366,7.5,Claremont Girl Guides Hall,"3 Boxhill Rd, CLAREMONT 7011",-1.9
Collinsvale,Clark,44,347,12.7,Collinsvale Primary School,"508 Collinsvale Rd, COLLINSVALE 7012",-42.8367,147.198,Elwick,Glenorchy City,70,368,19.0,Collinsvale Primary School,"508 Collinsvale Rd, COLLINSVALE 7012",-6.3
Dynnyrne,Clark,279,1057,26.4,Princes Street Primary School,"Randall St, SANDY BAY 7005",-42.8984,147.319,Nelson,Hobart City,370,1112,33.3,Princes Street Primary School,"Randall St, SANDY BAY 7005",-6.9
Fern Tree,Clark,260,541,48.1,Fern Tree Fire Station,"7 Summerleas Rd, FERN TREE 7054",-42.923248,147.260441,Hobart,Hobart City,289,514,56.2,Fern Tree Community Centre,"8 Stephenson Pl, FERN TREE 7054",-8.1
Glenorchy,Clark,200,2769,7.2,Glenorchy Primary School,"Kensington St, GLENORCHY 7010",-42.832391,147.266343,Elwick,Glenorchy City,216,2519,8.6,Glenorchy Primary School,"Kensington St, GLENORCHY 7010",-1.4
Glenorchy Central,Clark,124,1351,9.2,St Matthews Church,"Cnr Tolosa St and Main Rd, GLENORCHY 7010",-42.833066,147.274292,Elwick,Glenorchy City,131,1622,8.1,Glenorchy Civic Centre,"Cooper St, GLENORCHY 7010",1.1
Goodwood,Clark,29,510,5.7,Goodwood Primary School,"Elmsleigh Rd, MOONAH 7009",-42.831689,147.293744,Elwick,Glenorchy City,40,562,7.1,Goodwood Primary School,"Elmsleigh Rd, MOONAH 7009",-1.4
Hobart City,Clark,267,825,32.4,Hobart Voting Centre,"144 Macquarie St, HOBART 7000",-42.885224,147.327458,Hobart,Hobart City,297,882,33.7,City Hall,"57-63 Macquarie St, HOBART 7000",-1.3
Kingston (Clark),Clark,112,564,19.9,Kingborough Council,"15 Channel Hwy, KINGSTON 7050",-42.975418,147.31165,Nelson,Kingborough,125,525,23.8,Kingborough Council,"15 Channel Hwy, KINGSTON 7050",-3.9
Lenah Valley,Clark,474,2561,18.5,Lenah Valley Primary School,"11 Creek Rd, LENAH VALLEY 7008",-42.8612,147.29,Elwick,Hobart City,235,1185,19.8,Lenah Valley Primary School,"11 Creek Rd, LENAH VALLEY 7008",-1.3
Lower Sandy Bay,Clark,203,1427,14.2,Sandy Bay Infant School,"568 Sandy Bay Rd, SANDY BAY 7005",-42.909594,147.34935,Nelson,Hobart City,348,1912,18.2,St Stephen's Church Hall,"520 Sandy Bay Rd, SANDY BAY 7005",-4.0
Lutana,Clark,130,945,13.8,Southern ITF Taekwon-Do,"12 Ashbolt Cres, LUTANA 7009",-42.843166,147.309154,Elwick,Glenorchy City,116,859,13.5,St Anne's Anglican Church Hall,"27 Ashbolt Cres, LUTANA 7009",0.3
Merton,Clark,118,1678,7.0,Tolosa Hall,"148 Tolosa St, GLENORCHY 7010",-42.8455,147.265,Elwick,Glenorchy City,128,1516,8.4,Tolosa Hall,"148 Tolosa St, GLENORCHY 7010",-1.4
Moonah,Clark,210,1542,13.6,Salvation Army Community Centre,"73 Hopkins St, MOONAH 7009",-42.845951,147.296066,Elwick,Glenorchy City,203,1410,14.4,Salvation Army Community Centre,"73 Hopkins St, MOONAH 7009",-0.8
Moonah East,Clark,187,1276,14.7,Bowen Road Primary School,"35 Bowen Rd, MOONAH 7009",-42.8474,147.308,Elwick,Glenorchy City,201,1167,17.2,Bowen Road Primary School,"35 Bowen Rd, MOONAH 7009",-2.5
Moonah North,Clark,187,1560,12.0,Moonah Primary School,"40 Derwent Park Rd, MOONAH 7009",-42.838,147.296,Elwick,Glenorchy City,212,1307,16.2,Moonah Primary School,"40 Derwent Park Rd, MOONAH 7009",-4.2
Mount Nelson,Clark,313,1329,23.6,Mt Nelson Primary School,"388 Nelson Rd, MOUNT NELSON 7007",-42.9136,147.323,Nelson,Hobart City,381,1284,29.7,Mt Nelson Primary School,"388 Nelson Rd, MOUNT NELSON 7007",-6.1
Mount Stuart,Clark,234,949,24.7,Mt Stuart Primary School,"106 Gillon Cres, MOUNT STUART 7000",-42.875,147.299,Hobart,Hobart City,206,785,26.2,Mt Stuart Primary School,"106 Gillon Cres, MOUNT STUART 7000",-1.5
New Town,Clark,252,1165,21.6,The Friends School,"393 Argyle St, NORTH HOBART 7000",-42.867,147.316,Hobart,Hobart City,323,1144,28.2,The Friends School,"393 Argyle St, NORTH HOBART 7000",-6.6
New Town West,Clark,344,1933,17.8,Sacred Heart College,"67 Clare St, NEW TOWN 7008",-42.8615,147.304,Hobart,Hobart City,433,1723,25.1,Sacred Heart College,"67 Clare St, NEW TOWN 7008",-7.3
North Hobart Central,Clark,427,1561,27.4,Hobart North Uniting Church,"2 Swan St, NORTH HOBART 7000",-42.8728,147.314,Hobart,Hobart City,372,1102,33.8,Hobart North Uniting Church,"2 Swan St, NORTH HOBART 7000",-6.4
Roseneath,Clark,35,681,5.1,Austins Ferry Primary School,"13 Brodie St, CLAREMONT 7011",-42.78618,147.240549,Derwent,Glenorchy City,46,782,5.9,Austins Ferry Primary School,"13 Brodie St, CLAREMONT 7011",-0.8
Rosetta,Clark,41,478,8.6,Montrose Bay High School,"865 Brooker Ave, ROSETTA 7010",-42.8206,147.267567,Elwick,Glenorchy City,49,461,10.6,Montrose Bay Yacht Club,"Foreshore Rd, ROSETTA 7010",-2.0
Sandfly (Clark),Clark,61,267,22.8,Sandfly Hall,"811 Sandfly Rd, SANDFLY 7150",-42.985,147.196,Huon,Kingborough,72,276,26.1,Sandfly Hall,"811 Sandfly Rd, SANDFLY 7150",-3.3
Sandy Bay,Clark,236,1373,17.2,Wellspring Anglican Church Hall,"43 Grosvenor St, SANDY BAY 7005",-42.8992,147.327,Nelson,Hobart City,370,1512,24.5,Wellspring Anglican Church Hall,"43 Grosvenor St, SANDY BAY 7005",-7.3
Sandy Bay Beach,Clark,82,644,12.7,Harold Gregg Centre,"1 Southerwood Dr, SANDY BAY 7005",-42.9138,147.355,Nelson,Hobart City,157,798,19.7,Harold Gregg Centre,"1 Southerwood Dr, SANDY BAY 7005",-7.0
South Hobart,Clark,446,1310,34.0,St Francis Xavier's Church Hall,"34 Anglesea St, SOUTH HOBART 7004",-42.8949,147.312,Hobart,Hobart City,579,1327,43.6,St Francis Xavier's Church Hall,"34 Anglesea St, SOUTH HOBART 7004",-9.6
Taroona,Clark,470,1459,32.2,Taroona Primary School,"104 Channel Hwy, TAROONA 7053",-42.943302,147.352737,Nelson,Hobart City,587,1476,39.8,Taroona Primary School,"104 Channel Hwy, TAROONA 7053",-7.6
Waimea Heights,Clark,150,898,16.7,Waimea Heights Primary School,"12 Balfour Ct, SANDY BAY 7005",-42.909011,147.33674,Nelson,Hobart City,139,778,17.9,Waimea Heights Primary School,"12 Balfour Ct, SANDY BAY 7005",-1.2
West Hobart,Clark,256,904,28.3,St Peter's Hall,"Cnr Brisbane/Harrington Sts, HOBART 7000",-42.881458,147.320654,Hobart,Hobart City,163,521,31.3,St Peter's Hall,"Cnr Brisbane/Harrington Sts, HOBART 7000",-3.0
West Hobart Central,Clark,506,1916,26.4,Lansdowne Crescent Primary School,"15 Gourlay St, WEST HOBART 7000",-42.8819,147.309,Hobart,Hobart City,469,1214,38.6,Lansdowne Crescent Primary School,"15 Gourlay St, WEST HOBART 7000",-12.2
West Hobart South,Clark,367,1067,34.4,Goulburn Street Primary School,"Forest Rd, WEST HOBART 7000",-42.8878,147.317,Hobart,Hobart City,401,875,45.8,Goulburn Street Primary School,"Forest Rd, WEST HOBART 7000",-11.4
Windermere,Clark,50,978,5.1,Windermere Primary School,"2 Cadbury Rd, CLAREMONT 7011",-42.80013,147.259102,Derwent,Glenorchy City,82,1132,7.2,Windermere Primary School,"2 Cadbury Rd, CLAREMONT 7011",-2.1
Adventure Bay,Franklin,31,180,17.2,Adventure Bay Hall,"Adventure Bay Rd, ADVENTURE BAY 7150",-43.3458,147.321,Huon,Kingborough,39,195,20.0,Adventure Bay Hall,"Adventure Bay Rd, ADVENTURE BAY 7150",-2.8
Alonnah,Franklin,56,278,20.1,Bruny Island District School,"15 School Rd, ALONNAH 7150",-43.31807,147.244455,Huon,Kingborough,74,257,28.8,Bruny Island District School,"15 School Rd, ALONNAH 7150",-8.7
Barnes Bay,Franklin,16,76,21.1,Barnes Bay CWA Rooms,"678 Bruny Island Main Rd, NORTH BRUNY 7150",-43.112603,147.373414,Huon,Kingborough,37,130,28.5,Barnes Bay CWA Rooms,"678 Bruny Island Main Rd, NORTH BRUNY 7150",-7.4
Bellerive,Franklin,294,1794,16.4,Clarence Police & Community Youth Club Inc,"10 Scott St, BELLERIVE 7018",-42.87606,147.370955,Pembroke,Clarence City,358,2024,17.7,Clarence Police & Community Youth Club Inc,"10 Scott St, BELLERIVE 7018",-1.3
Blackmans Bay,Franklin,478,2705,17.7,Blackmans Bay Primary School,"177 Roslyn Ave, BLACKMANS BAY 7052",-42.996938,147.321219,Nelson,Kingborough,629,3184,19.8,The Salvation Army Kingborough,"3 Opal Dr, BLACKMANS BAY 7052",-2.1
Cambridge,Franklin,115,1483,7.8,Cambridge Primary School,"976 Cambridge Rd, CAMBRIDGE 7170",-42.8362,147.442,Rumney,Clarence City,210,1390,15.1,Cambridge Primary School,"976 Cambridge Rd, CAMBRIDGE 7170",-7.3
Clarence,Franklin,255,1897,13.4,Clarence High School,"25 Wentworth St, BELLERIVE 7018",-42.8784,147.389,Pembroke,Clarence City,236,1603,14.7,Clarence High School,"25 Wentworth St, BELLERIVE 7018",-1.3
Clarendon Vale,Franklin,35,787,4.4,Clarendon Vale Neighbourhood Centre,"65 Mockridge Rd, CLARENDON VALE 7019",-42.887539,147.443086,Rumney,Clarence City,23,573,4.0,Clarendon Vale Primary School,"25 Mockridge Rd, CLARENDON VALE 7019",0.4
Cradoc,Franklin,114,479,23.8,Cradoc Park,"8243 Channel Hwy, CRADOC 7109",-43.1064,147.034,Huon,Huon Valley,107,458,23.4,Cradoc Park,"8243 Channel Hwy, CRADOC 7109",0.4
Cygnet,Franklin,652,1820,35.8,Carmel Hall,"25 Mary St, CYGNET 7112",-43.162624,147.076341,Huon,Huon Valley,515,1620,31.8,Carmel Hall,"25 Mary St, CYGNET 7112",4.0
Dover,Franklin,89,633,14.1,Dover District High School,"6940 Huon Hwy, DOVER 7117",-43.3105,147.013,Huon,Huon Valley,72,597,12.1,Dover District High School,"6940 Huon Hwy, DOVER 7117",2.0
Franklin,Franklin,170,644,26.4,Franklin Primary School,"10 New Rd, FRANKLIN 7113",-43.085654,147.012018,Huon,Huon Valley,127,514,24.7,Franklin Primary School,"10 New Rd, FRANKLIN 7113",1.7
Geeveston,Franklin,138,1075,12.8,Geeveston Primary School,"63 Arve Rd, GEEVESTON 7116",-43.1625,146.922,Huon,Huon Valley,88,691,12.7,Geeveston Community Hall,"7 Brady St, GEEVESTON 7116",0.1
Geilston Bay,Franklin,183,1972,9.3,Lindisfarne North Primary School,"271 East Derwent Hwy, GEILSTON BAY 7015",-42.8383,147.349,Pembroke,Clarence City,221,1904,11.6,Lindisfarne North Primary School,"271 East Derwent Hwy, GEILSTON BAY 7015",-2.3
Glen Huon,Franklin,46,315,14.6,Glen Huon Primary School,"801 Glen Huon Rd, GLEN HUON 7109",-43.0278,146.962,Huon,Huon Valley,49,319,15.4,Glen Huon Primary School,"801 Glen Huon Rd, GLEN HUON 7109",-0.8
Howden,Franklin,107,438,24.4,Howden Fire Station,"392 Howden Rd, HOWDEN 7054",-43.019128,147.291545,Huon,Kingborough,93,379,24.5,Howden Fire Station,"392 Howden Rd, HOWDEN 7054",-0.1
Howrah,Franklin,227,2460,9.2,"Howrah Scout Hall, Howrah Primary School","7 Howrah Rd, HOWRAH 7018",-42.8819,147.404,Pembroke,Clarence City,263,2487,10.6,"Howrah Scout Hall, Howrah Primary School","7 Howrah Rd, HOWRAH 7018",-1.4
Huonville,Franklin,203,1489,13.6,Huonville Primary School,"74 Wilmot Rd, HUONVILLE 7109",-43.02424,147.044783,Huon,Huon Valley,206,1487,13.9,Salvation Army Hall,"31 Wilmot Rd, HUONVILLE 7109",-0.3
Judbury,Franklin,48,252,19.0,Judbury Hall,"1273 Glen Huon Rd, JUDBURY 7109",-42.9982,146.9283,Huon,Huon Valley,55,249,22.1,Judbury Hall,"1273 Glen Huon Rd, JUDBURY 7109",-3.1
Kettering,Franklin,156,544,28.7,Kettering Community Centre,"2963 Channel Hwy, KETTERING 7155",-43.1257,147.247,Huon,Kingborough,188,573,32.8,Kettering Community Centre,"2963 Channel Hwy, KETTERING 7155",-4.1
Kingston (Franklin),Franklin,363,1987,18.3,Kingborough Council,"15 Channel Hwy, KINGSTON 7050",-42.975418,147.31165,Nelson,Kingborough,282,1598,17.6,Kingborough Council,"15 Channel Hwy, KINGSTON 7050",0.7
Kingston Beach,Franklin,322,1728,18.6,Kingston Beach Hall,"20 Beach Rd, KINGSTON BEACH 7050",-42.981534,147.323507,Nelson,Kingborough,510,2299,22.2,Kingston Beach Hall,"20 Beach Rd, KINGSTON BEACH 7050",-3.6
Lauderdale,Franklin,311,2434,12.8,Lauderdale Community Hall,"528A South Arm Rd, LAUDERDALE 7021",-42.913663,147.48627,Rumney,Clarence City,408,2435,16.8,Lauderdale Community Hall,"528A South Arm Rd, LAUDERDALE 7021",-4.0
Lindisfarne,Franklin,179,1453,12.3,Lindisfarne Primary School,"17 Loatta Rd, LINDISFARNE 7015",-42.8519,147.363,Pembroke,Clarence City,211,1400,15.1,Lindisfarne Primary School,"17 Loatta Rd, LINDISFARNE 7015",-2.8
Lindisfarne Village,Franklin,233,1880,12.4,St Aidans Church Hall,"54 Lincoln St, LINDISFARNE 7015",-42.846661,147.35574,Pembroke,Clarence City,312,1777,17.6,Lindisfarne Citizens Activities Centre,"37A Lincoln St, LINDISFARNE 7015",-5.2
Maranoa Heights,Franklin,167,1701,9.8,Southern Christian College,"150 Redwood Rd, KINGSTON 7050",-42.9896,147.309,Nelson,Kingborough,253,1910,13.2,Southern Christian College,"150 Redwood Rd, KINGSTON 7050",-3.4
Margate,Franklin,338,2012,16.8,Margate Hall,"1744 Channel Hwy, MARGATE 7054",-43.029,147.263,Huon,Kingborough,433,2171,19.9,Margate Hall,"1744 Channel Hwy, MARGATE 7054",-3.1
Middleton,Franklin,66,277,23.8,South Channel Community Centre,"25 McDowall St, MIDDLETON 7163",-43.2311,147.256,Huon,Kingborough,74,255,29.0,South Channel Community Centre,"25 McDowall St, MIDDLETON 7163",-5.2
Montagu Bay,Franklin,185,1229,15.1,Montagu Bay Primary School,"10 Conara Rd, MONTAGU BAY 7018",-42.8646,147.353,Pembroke,Clarence City,214,1107,19.3,Montagu Bay Primary School,"10 Conara Rd, MONTAGU BAY 7018",-4.2
Mornington,Franklin,71,767,9.3,Citywide Baptist Church,"400 Cambridge Rd, MORNINGTON 7018",-42.856351,147.401753,Pembroke,Clarence City,61,410,14.9,Citywide Baptist Church,"400 Cambridge Rd, MORNINGTON 7018",-5.6
Mountain River,Franklin,99,584,17.0,Mountain River Memorial Hall,"263 Mountain River Rd, MOUNTAIN RIVER 7109",-42.9614,147.109,Huon,Huon Valley,127,590,21.5,Mountain River Memorial Hall,"263 Mountain River Rd, MOUNTAIN RIVER 7109",-4.5
Old Beach,Lyons,76,1482,5.1,Old Beach Community Centre,"86 Jetty Rd, OLD BEACH 7017",-42.77427,147.26576,Rumney,Brighton,87,1371,6.3,Old Beach Community Centre,"86 Jetty Rd, OLD BEACH 7017",-1.2
Ranelagh,Franklin,150,1032,14.5,Ranelagh Memorial Hall,"40 Marguerite St, RANELAGH 7109",-43.0086,147.039,Huon,Huon Valley,151,907,16.6,Ranelagh Memorial Hall,"40 Marguerite St, RANELAGH 7109",-2.1
Richmond,Lyons,95,928,10.2,Richmond Primary School,"Commercial Rd, RICHMOND 7025",-42.739282,147.437988,Rumney,Clarence City,116,885,13.1,Richmond Primary School,"Commercial Rd, RICHMOND 7025",-2.9
Risdon Vale,Franklin,61,1156,5.3,Risdon Vale Primary School,"2 Heather Rd, RISDON VALE 7016",-42.8131,147.354,Rumney,Clarence City,63,1130,5.6,Risdon Vale Primary School,"2 Heather Rd, RISDON VALE 7016",-0.3
Rokeby,Franklin,68,1350,5.0,Emmanuel Christian School,"1 Chipmans Rd, ROKEBY 7019",-42.90091,147.438998,Rumney,Clarence City,77,1405,5.5,Rokeby Community Centre,"Hart Pl, ROKEBY 7019",-0.5
Sandfly (Franklin),Franklin,193,871,22.2,Sandfly Hall,"811 Sandfly Rd, SANDFLY 7150",-42.985,147.196,Huon,Kingborough,210,764,27.5,Sandfly Hall,"811 Sandfly Rd, SANDFLY 7150",-5.3
Sandford,Franklin,274,1331,20.6,Sandford Hall,"949 South Arm Rd, SANDFORD 7020",-42.9402,147.495,Rumney,Clarence City,289,1151,25.1,Sandford Hall,"949 South Arm Rd, SANDFORD 7020",-4.5
Seven Mile Beach,Franklin,94,796,11.8,Ramada Resort By Wyndham Seven Mile Beach,"78 Surf Rd, SEVEN MILE BEACH 7170",-42.8526,147.511,Rumney,Clarence City,127,733,17.3,Ramada Resort By Wyndham Seven Mile Beach,"78 Surf Rd, SEVEN MILE BEACH 7170",-5.5
Snug,Franklin,262,1183,22.1,Snug Primary School,"2208 Channel Hwy, SNUG 7054",-43.0664,147.255,Huon,Kingborough,271,1069,25.4,Snug Primary School,"2208 Channel Hwy, SNUG 7054",-3.3
South Arm,Franklin,122,676,18.0,South Arm Primary School,"32 Harmony Lane, SOUTH ARM 7022",-43.0264,147.421,Rumney,Clarence City,140,677,20.7,South Arm Primary School,"32 Harmony Lane, SOUTH ARM 7022",-2.7
Southport,Franklin,29,146,19.9,Southport Community Centre,"8606 Huon Hwy, SOUTHPORT 7109",-43.418985,146.959638,Huon,Huon Valley,30,148,20.3,Southport Fire Station,"3 Cathkit St, SOUTHPORT 7109",-0.4
Tranmere,Franklin,185,2287,8.1,Tranmere Hall,"27 Tranmere Rd, HOWRAH 7018",-42.8911,147.409,Pembroke,Clarence City,263,2123,12.4,Tranmere Hall,"27 Tranmere Rd, HOWRAH 7018",-4.3
Warrane,Franklin,165,1964,8.4,Warrane Primary School,"213 Cambridge Rd, WARRANE 7018",-42.86115,147.38256,Pembroke,Clarence City,121,1237,9.8,Warrane Primary School,"213 Cambridge Rd, WARRANE 7018",-1.4
Woodbridge,Franklin,170,456,37.3,Woodbridge Hall,"3445 Channel Hwy, WOODBRIDGE 7162",-43.1601,147.239,Huon,Kingborough,169,403,41.9,Woodbridge Hall,"3445 Channel Hwy, WOODBRIDGE 7162",-4.6
Avoca,Lyons,6,177,3.4,Avoca Primary School,"26-30 St Pauls St, AVOCA 7213",-41.782233,147.726685,McIntyre,Northern Midlands,14,205,6.8,Avoca Primary School,"26-30 St Pauls St, AVOCA 7213",-3.4
Bagdad,Lyons,20,701,2.9,Bagdad Primary School,"46 School Rd, BAGDAD 7030",-42.6249,147.223,Prosser,Southern Midlands,58,684,8.5,Bagdad Primary School,"46 School Rd, BAGDAD 7030",-5.6
Beaconsfield,Bass,54,1024,5.3,Beaconsfield Senior Citizens' Hall,"121 Weld St, BEACONSFIELD 7270",-41.2024,146.819,Rosevears,West Tamar,139,928,15.0,Beaconsfield House Inc,"33 Grubb St, BEACONSFIELD 7270",-9.7
Beauty Point,Bass,44,627,7.0,Beauty Point Uniting Church Hall,"Beatty St, BEAUTY POINT 7270",-41.148983,146.817506,Rosevears,West Tamar,87,745,11.7,Beauty Point (Sandy Beach) Bowls Club Hall,"11 Mainwaring St, BEAUTY POINT 7270",-4.7
Bicheno,Lyons,73,671,10.9,Bicheno Beachfront,"Sinclair St, BICHENO 7215",-41.874363,148.299881,Prosser,Glamorgan-Spring Bay,89,610,14.6,Bicheno Beachfront,"Sinclair St, BICHENO 7215",-3.7
Bothwell,Lyons,5,360,1.4,Bothwell Council Chambers,"19 Alexander St, BOTHWELL 7030",-42.3819,147.006,Derwent,Central Highlands,21,377,5.6,Bothwell Council Chambers,"19 Alexander St, BOTHWELL 7030",-4.2
Bracknell,Lyons,23,440,5.2,Bracknell War Memorial Hall,"Louisa St, BRACKNELL 7302",-41.6512,146.943,McIntyre,Meander Valley,32,364,8.8,Bracknell War Memorial Hall,"Louisa St, BRACKNELL 7302",-3.6
Bridgewater,Lyons,33,1874,1.8,Brighton Civic Centre,"25 Green Point Rd, BRIDGEWATER 7030",-42.739164,147.243512,Derwent,Brighton,83,1804,4.6,Brighton Civic Centre,"25 Green Point Rd, BRIDGEWATER 7030",-2.8
Brighton,Lyons,56,2078,2.7,Brighton Primary School,"27 Downie St, BRIGHTON 7030",-42.6991,147.258,Derwent,Brighton,69,1951,3.5,Brighton Primary School,"27 Downie St, BRIGHTON 7030",-0.8
Broadmarsh,Lyons,10,221,4.5,Broadmarsh Hall,"1218 Elderslie Rd, BROADMARSH 7030",-42.6567,147.126,Prosser,Southern Midlands,25,179,14.0,Broadmarsh Hall,"1218 Elderslie Rd, BROADMARSH 7030",-9.5
Campania,Lyons,15,489,3.1,Campania Hall,"45 Reeve St, CAMPANIA 7026",-42.667109,147.421053,Prosser,Southern Midlands,29,477,6.1,Campania Hall,"45 Reeve St, CAMPANIA 7026",-3.0
Campbell Town,Lyons,23,670,3.4,Campbell Town Town Hall,"75 High St, CAMPBELL TOWN 7210",-41.926995,147.494438,Prosser,Northern Midlands,49,653,7.5,Campbell Town Town Hall,"75 High St, CAMPBELL TOWN 7210",-4.1
Carrick,Lyons,27,610,4.4,Carrick Public Hall,"29 Meander Valley Rd, CARRICK 7291",-41.530917,147.011259,McIntyre,Meander Valley,47,529,8.9,Carrick Public Hall,"29 Meander Valley Rd, CARRICK 7291",-4.5
Chudleigh,Lyons,31,267,11.6,Chudleigh Memorial Hall,"54 Sorell St, CHUDLEIGH 7304",-41.557239,146.481292,McIntyre,Meander Valley,47,259,18.1,Chudleigh Memorial Hall,"54 Sorell St, CHUDLEIGH 7304",-6.5
Claude Road,Lyons,56,383,14.6,Claude Road Memorial Hall,"787 Claude Rd, CLAUDE ROAD 7306",-41.4343,146.275,Montgomery,Kentish,76,378,20.1,Claude Road Memorial Hall,"787 Claude Rd, CLAUDE ROAD 7306",-5.5
Colebrook,Lyons,9,190,4.7,Colebrook Fire Station,"Colebrook Rd, COLEBROOK 7027",-42.531409,147.361399,Prosser,Southern Midlands,22,182,12.1,Colebrook Fire Station,"Colebrook Rd, COLEBROOK 7027",-7.4
Coles Bay,Lyons,30,194,15.5,Coles Bay Community Hall,"60 Harold St, COLES BAY 7215",-42.1249,148.286,Prosser,Glamorgan-Spring Bay,48,171,28.1,Coles Bay Community Hall,"60 Harold St, COLES BAY 7215",-12.6
Copping,Lyons,46,266,17.3,Copping Hall,"69 Allanby St, COPPING 7174",-42.819982,147.802747,Prosser,Sorell,99,378,26.2,Copping Hall,"69 Allanby St, COPPING 7174",-8.9
Cressy,Lyons,8,636,1.3,Cressy Community Hall,"67 Main St, CRESSY 7302",-41.685476,147.080745,McIntyre,Northern Midlands,30,620,4.8,Cressy Community Hall,"67 Main St, CRESSY 7302",-3.5
Deloraine,Lyons,212,1830,11.6,Deloraine High School Hall,"East Barrack St, DELORAINE 7304",-41.52917,146.66111,McIntyre,Meander Valley,300,1855,16.2,Deloraine High School Hall,"East Barrack St, DELORAINE 7304",-4.6
Dodges Ferry,Lyons,215,1917,11.2,Dodges Ferry Community Recreation Centre,"532 Old Forcett Rd, DODGES FERRY 7173",-42.8485,147.624,Prosser,Sorell,372,2006,18.5,Dodges Ferry Community Recreation Centre,"532 Old Forcett Rd, DODGES FERRY 7173",-7.3
Dromedary,Lyons,20,337,5.9,Dromedary (Millvale) Community Hall,"14 Millvale Rd, DROMEDARY 7030",-42.7282,147.179,Derwent,Brighton,27,346,7.8,Dromedary (Millvale) Community Hall,"14 Millvale Rd, DROMEDARY 7030",-1.9
Dunalley,Lyons,46,392,11.7,Dunalley Primary School,"20-32 Bay St, DUNALLEY 7177",-42.8858,147.812114,Prosser,Sorell,81,446,18.2,Dunalley Primary School,"20-32 Bay St, DUNALLEY 7177",-6.5
Elizabeth Town,Lyons,41,379,10.8,Elizabeth Town Fire Station,"5816 Bass Hwy, ELIZABETH TOWN 7304",-41.461865,146.563813,McIntyre,Meander Valley,42,402,10.4,Elizabeth Town Fire Station,"5816 Bass Hwy, ELIZABETH TOWN 7304",0.4
Epping,Lyons,7,155,4.5,Epping Forest Public Hall,"13515 Midland Hwy, EPPING FOREST 7211",-41.758076,147.349062,McIntyre,Northern Midlands,16,204,7.8,Epping Forest Public Hall,"13515 Midland Hwy, EPPING FOREST 7211",-3.3
Evandale,Lyons,75,904,8.3,Evandale Primary School,"5-11 Barclay St, EVANDALE 7212",-41.5672,147.247,McIntyre,Northern Midlands,121,906,13.4,Evandale Primary School,"5-11 Barclay St, EVANDALE 7212",-5.1
Exeter,Bass,102,1108,9.2,Exeter High School Gymnasium,"28 Glen Ard Mohr Rd, EXETER 7275",-41.2996,146.957,Rosevears,West Tamar,192,1055,18.2,Exeter High School Gymnasium,"28 Glen Ard Mohr Rd, EXETER 7275",-9.0
Fingal,Lyons,8,310,2.6,Fingal Activity Centre (former Council Chambers),"29 Talbot St, FINGAL 7214",-41.638074,147.970144,McIntyre,Break O'Day,16,287,5.6,Fingal Activity Centre (former Council Chambers),"29 Talbot St, FINGAL 7214",-3.0
Forcett,Lyons,27,496,5.4,Forcett Public Hall,"699 Arthur Hwy, FORCETT 7173",-42.806209,147.631863,Prosser,Sorell,64,611,10.5,Forcett Public Hall,"699 Arthur Hwy, FORCETT 7173",-5.1
Frankford,Lyons,4,101,4.0,Frankford Memorial Hall,"Frankford Rd, FRANKFORD 7275",-41.342597,146.774898,Rosevears,West Tamar,20,127,15.7,Frankford Memorial Hall,"Frankford Rd, FRANKFORD 7275",-11.7
Gagebrook,Lyons,25,847,3.0,Gagebrook Primary School,"4 Tottenham Rd, GAGEBROOK 7030",-42.7488,147.276,Derwent,Brighton,36,860,4.2,Gagebrook Primary School,"4 Tottenham Rd, GAGEBROOK 7030",-1.2
Glengarry,Bass,32,332,9.6,Glengarry Fire Station,"Frankford Rd, GLENGARRY 7275",-41.337856,146.872457,Rosevears,West Tamar,27,283,9.5,Glengarry Fire Station,"Frankford Rd, GLENGARRY 7275",0.1
Glenora,Lyons,14,315,4.4,Glenora District High School,"620 Gordon River Rd, GLENORA 7140",-42.6969,146.889,Derwent,Derwent Valley,13,180,7.2,Glenora District High School,"620 Gordon River Rd, GLENORA 7140",-2.8
Granton,Lyons,22,546,4.0,Granton Memorial Hall,"1 Lyell Hwy, GRANTON 7030",-42.7498,147.224,Derwent,Derwent Valley,39,496,7.9,Granton Memorial Hall,"1 Lyell Hwy, GRANTON 7030",-3.9
Gravelly Beach,Bass,80,509,15.7,Gravelly Beach Main Hall,"Edinburgh Park, off Gravelly Beach Rd, GRAVELLY BEACH 7276",-41.28322,146.969954,Rosevears,West Tamar,169,526,32.1,Gravelly Beach Main Hall,"Edinburgh Park, off Gravelly Beach Rd, GRAVELLY BEACH 7276",-16.4
Hagley,Lyons,17,271,6.3,Hagley Farm Primary School,"2508 Meander Valley Rd, HAGLEY 7292",-41.526508,146.903129,McIntyre,Meander Valley,29,324,9.0,Hagley Farm Primary School,"2508 Meander Valley Rd, HAGLEY 7292",-2.7
Kelso,Bass,23,263,8.7,Kelso Community Centre,"Foreshore Rd, KELSO 7270",-41.1037,146.794,Rosevears,West Tamar,52,238,21.8,Kelso Community Centre,"Foreshore Rd, KELSO 7270",-13.1
Kempton,Lyons,5,306,1.6,Kempton Memorial Hall,"89 Main St, KEMPTON 7030",-42.531821,147.200647,Prosser,Southern Midlands,12,296,4.1,Kempton Memorial Hall,"89 Main St, KEMPTON 7030",-2.5
Lachlan,Lyons,39,395,9.9,Lachlan Community Hall,"511 Lachlan Rd, LACHLAN 7140",-42.8304,147.043,Derwent,Derwent Valley,68,399,17.0,Lachlan Community Hall,"511 Lachlan Rd, LACHLAN 7140",-7.1
Legana (Lyons),Lyons,70,871,8.0,Legana Memorial Hall,"43 Fulton St, LEGANA 7277",-41.3632,147.047,Rosevears,West Tamar,119,809,14.7,Legana Memorial Hall,"43 Fulton St, LEGANA 7277",-6.7
Levendale,Lyons,2,82,2.4,Levendale Community Hall,"Woodsdale Rd, LEVENDALE 7120",-42.542125,147.568369,Prosser,Southern Midlands,7,114,6.1,Levendale Community Hall,"Woodsdale Rd, LEVENDALE 7120",-3.7
Longford,Lyons,76,2124,3.6,Longford War Memorial Hall,"53 Wellington St, LONGFORD 7301",-41.59314,147.121997,McIntyre,Northern Midlands,154,2012,7.7,Longford War Memorial Hall,"53 Wellington St, LONGFORD 7301",-4.1
Lower Barrington,Lyons,27,511,5.3,Lower Barrington Public Hall,"1027 Sheffield Rd, LOWER BARRINGTON 7306",-41.291,146.291,Montgomery,Kentish,50,498,10.0,Lower Barrington Public Hall,"1027 Sheffield Rd, LOWER BARRINGTON 7306",-4.7
Magra,Lyons,16,504,3.2,Magra CWA Building,"377 Back River Rd, MAGRA 7140",-42.7559,147.054,Derwent,Derwent Valley,27,468,5.8,Magra CWA Building,"377 Back River Rd, MAGRA 7140",-2.6
Mathinna,Lyons,3,44,6.8,Mathinna Community Centre,"21 High St, MATHINNA 7214",-41.471914,147.890713,McIntyre,Break O'Day,10,88,11.4,Mathinna Community Centre,"21 High St, MATHINNA 7214",-4.6
Maydena,Lyons,7,73,9.6,Giant's Table and Cottages,"9-13 Junee Rd, MAYDENA 7140",-42.753993,146.623385,Derwent,Derwent Valley,20,130,15.4,Maydena Online Access Centre,"36 Kallista Rd, MAYDENA 7140",-5.8
Meander,Lyons,26,232,11.2,Meander Hall,"124 Main Rd, MEANDER 7304",-41.65198,146.609993,McIntyre,Meander Valley,61,275,22.2,Meander Primary School,"137 Main Rd, MEANDER 7304",-11.0
Midway Point,Lyons,57,1320,4.3,Midway Point Community Hall,"34 Raynors Rd, MIDWAY POINT 7171",-42.7997,147.533,Rumney,Sorell,129,1355,9.5,Midway Point Community Hall,"34 Raynors Rd, MIDWAY POINT 7171",-5.2
Miena,Lyons,4,162,2.5,Miena Community Centre,"55-57 Cider Gum Rd, MIENA 7030",-41.9937,146.708,Derwent,Central Highlands,9,117,7.7,Miena Community Centre,"55-57 Cider Gum Rd, MIENA 7030",-5.2
Mole Creek,Lyons,23,295,7.8,Mole Creek Primary School,"4 Caveside Rd, MOLE CREEK 7304",-41.557472,146.406501,McIntyre,Meander Valley,43,291,14.8,Mole Creek Primary School,"4 Caveside Rd, MOLE CREEK 7304",-7.0
Molesworth,Lyons,34,288,11.8,Molesworth Community Hall,"560 Molesworth Rd, MOLESWORTH 7140",-42.80423,147.161093,Derwent,Derwent Valley,65,291,22.3,Molesworth Primary School,"540 Molesworth Rd, MOLESWORTH 7140",-10.5
Moriarty,Braddon,15,239,6.3,Moriarty Hall,"1 Bonneys Lane, MORIARTY 7307",-41.217206,146.481308,Mersey,Latrobe,31,252,12.3,Moriarty Hall,"1 Bonneys Lane, MORIARTY 7307",-6.0
New Norfolk,Lyons,103,1967,5.2,New Norfolk Primary School,"8 Pioneer Ave, NEW NORFOLK 7140",-42.7793,147.064,Derwent,Derwent Valley,206,1779,11.6,New Norfolk Primary School,"8 Pioneer Ave, NEW NORFOLK 7140",-6.4
New Norfolk North,Lyons,31,1115,2.8,Fairview Primary School,"211 Back River Rd, NEW NORFOLK 7140",-42.774251,147.04917,Derwent,Derwent Valley,37,1228,3.0,New Norfolk Sport & Recreation Centre,"50 Derwent Terrace, NEW NORFOLK 7140",-0.2
Nubeena,Lyons,95,688,13.8,Tasman Civic Centre,"21 Clarke St, NUBEENA 7184",-43.099706,147.744677,Prosser,Tasman,93,527,17.6,Tasman Civic Centre,"21 Clarke St, NUBEENA 7184",-3.8
Oatlands,Lyons,41,657,6.2,Oatlands Council Chambers,"71 High St, OATLANDS 7120",-42.299995,147.372094,Prosser,Southern Midlands,51,566,9.0,Oatlands Council Chambers,"71 High St, OATLANDS 7120",-2.8
Orford,Lyons,62,507,12.2,Orford Primary School,"35 Charles st, ORFORD 7190",-42.563502,147.87386,Prosser,Glamorgan-Spring Bay,42,461,9.1,Orford Primary School,"35 Charles st, ORFORD 7190",3.1
Ouse,Lyons,7,362,1.9,Ouse Online Centre,"6947 Lyell Hwy, OUSE 7140",-42.485288,146.711018,Derwent,Central Highlands,12,213,5.6,Ouse Online Centre,"6947 Lyell Hwy, OUSE 7140",-3.7
Perth,Lyons,66,1781,3.7,Perth Community Centre,"173 Fairtlough St, PERTH 7300",-41.5725,147.173,McIntyre,Northern Midlands,109,1792,6.1,Perth Community Centre,"173 Fairtlough St, PERTH 7300",-2.4
Pontville,Lyons,24,561,4.3,Pontville Old Council Chambers,"371 Brighton Rd, PONTVILLE 7030",-42.683895,147.265554,Prosser,Brighton,57,663,8.6,Pontville Old Council Chambers,"371 Brighton Rd, PONTVILLE 7030",-4.3
Port Sorell,Braddon,117,2411,4.9,Port Sorell Memorial Hall,"cnr Meredith St & Darling St, PORT SORELL 7307",-41.165409,146.555718,Mersey,Latrobe,196,2123,9.2,Port Sorell Memorial Hall,"cnr Meredith St & Darling St, PORT SORELL 7307",-4.3
Primrose Sands,Lyons,27,516,5.2,Primrose Sands Community Hall,"570 Primrose Sands Rd, PRIMROSE SANDS 7173",-42.892403,147.671829,Prosser,Sorell,37,468,7.9,Primrose Sands Community Hall,"570 Primrose Sands Rd, PRIMROSE SANDS 7173",-2.7
Railton,Lyons,30,703,4.3,Sheffield School - Railton Campus,"94 Foster St, RAILTON 7305",-41.3526,146.414,McIntyre,Kentish,45,701,6.4,Sheffield School - Railton Campus,"94 Foster St, RAILTON 7305",-2.1
Ross,Lyons,12,309,3.9,Ross Town Hall,"12 Bridge St, ROSS 7209",-42.031409,147.492498,Prosser,Northern Midlands,22,308,7.1,Ross Town Hall,"12 Bridge St, ROSS 7209",-3.2
Sassafras,Braddon,2,257,0.8,Sassafras Primary School,"50 School Rd, SASSAFRAS 7307",-41.2871,146.503,Mersey,Latrobe,7,221,3.2,Sassafras Primary School,"50 School Rd, SASSAFRAS 7307",-2.4
Scamander,Lyons,60,503,11.9,Scamander Sports Complex,"1 Old Coach Rd, SCAMANDER 7215",-41.454218,148.26009,McIntyre,Break O'Day,116,569,20.4,Scamander Fire Station,"Campbell St, SCAMANDER 7215",-8.5
Sheffield,Lyons,75,1074,7.0,Sheffield School,"12 Henry St, SHEFFIELD 7306",-41.380689,146.330316,Montgomery,Kentish,103,994,10.4,Sheffield School,"12 Henry St, SHEFFIELD 7306",-3.4
Sidmouth,Bass,46,429,10.7,Sidmouth Community Centre,"255 Batman Hwy, SIDMOUTH 7270",-41.2221,146.887,Rosevears,West Tamar,129,498,25.9,Sidmouth Community Centre,"255 Batman Hwy, SIDMOUTH 7270",-15.2
Sorell,Lyons,99,2059,4.8,Sorell Memorial Hall,"47 Cole St, SORELL 7172",-42.780612,147.560628,Prosser,Sorell,162,2027,8.0,Sorell School,"41 Gordon St, SORELL 7172",-3.2
St Helens,Lyons,101,1221,8.3,St Helens District High School,"9 Circassian St, ST HELENS 7216",-41.324539,148.246265,McIntyre,Break O'Day,247,1739,14.2,St Helens Memorial Hall,"39 Cecilia St, ST HELENS 7216",-5.9
St Marys,Lyons,71,547,13.0,St Marys Community Hall,"23 Main St, ST MARYS 7215",-41.57969,148.18531,McIntyre,Break O'Day,112,536,20.9,St Marys Community Hall,"23 Main St, ST MARYS 7215",-7.9
Swansea,Lyons,77,769,10.0,Swansea Primary School,"25 Franklin St, SWANSEA 7190",-42.122367,148.073185,Prosser,Glamorgan-Spring Bay,85,706,12.0,Swansea Town Hall,"12 Franklin St, SWANSEA 7190",-2.0
Taranna,Lyons,60,404,14.9,Tasman Peninsula Community Centre,"Gourlay Rd, TARANNA 7180",-43.037984,147.867522,Prosser,Tasman,74,296,25.0,Tasman Peninsula Community Centre,"Gourlay Rd, TARANNA 7180",-10.1
Tea Tree,Lyons,11,225,4.9,Tea Tree Community Hall,"Briar Banks Rd, TEA TREE 7017",-42.689533,147.323592,Prosser,Brighton,22,206,10.7,Tea Tree Community Hall,"Briar Banks Rd, TEA TREE 7017",-5.8
Triabunna,Lyons,29,619,4.7,Triabunna Hall,"3 Vicary St, TRIABUNNA 7190",-42.50822,147.910384,Prosser,Glamorgan-Spring Bay,25,574,4.4,Triabunna Council Chambers,"38 Vicary St, TRIABUNNA 7190",0.3
Tunnack,Lyons,5,196,2.6,Tunnack Public Hall,"2147 Tunnack Rd, TUNNACK 7120",-42.456521,147.461779,Prosser,Southern Midlands,13,185,7.0,Tunnack Public Hall,"2147 Tunnack Rd, TUNNACK 7120",-4.4
Wesley Vale,Braddon,17,200,8.5,Andrews Creek Primary School,"20 Westwind Dr, WESLEY VALE 7307",-41.188828,146.456401,Mersey,Latrobe,21,179,11.7,Andrews Creek Primary School,"20 Westwind Dr, WESLEY VALE 7307",-3.2
Westbury,Lyons,88,1252,7.0,Westbury Town Hall,"26 Lyall St, WESTBURY 7303",-41.528106,146.83102,McIntyre,Meander Valley,113,1178,9.6,Westbury Uniting Church Hall,"Cnr Dexter and William Streets, WESTBURY 7303",-2.6
Westerway,Lyons,24,304,7.9,Westerway Primary School,"1619 Gordon River Rd, WESTERWAY 7140",-42.6775,146.787,Derwent,Derwent Valley,31,204,15.2,Westerway Primary School,"1619 Gordon River Rd, WESTERWAY 7140",-7.3
Wilmot,Lyons,38,238,16.0,Wilmot Primary School,"61 Main St, WILMOT 7310",-41.386919,146.175659,Montgomery,Kentish,49,211,23.2,Wilmot Primary School,"61 Main St, WILMOT 7310",-7.2
